{"Asia/Tokyo":[{"lat":35.6839,"lng":139.7744,"iso3":"JPN","name":"Tokyo"},{"lat":34.752,"lng":135.4582,"iso3":"JPN","name":"Ōsaka"},{"lat":35.1167,"lng":136.9333,"iso3":"JPN","name":"Nagoya"},{"lat":35.4333,"lng":139.6333,"iso3":"JPN","name":"Yokohama"},{"lat":33.6,"lng":130.4167,"iso3":"JPN","name":"Fukuoka"},{"lat":43.0621,"lng":141.3544,"iso3":"JPN","name":"Sapporo"},{"lat":33.6,"lng":130.8153,"iso3":"JPN","name":"Kawasaki"},{"lat":34.6913,"lng":135.183,"iso3":"JPN","name":"Kōbe"},{"lat":35.0117,"lng":135.7683,"iso3":"JPN","name":"Kyōto"},{"lat":35.8617,"lng":139.6453,"iso3":"JPN","name":"Saitama"},{"lat":34.4,"lng":132.45,"iso3":"JPN","name":"Hiroshima"},{"lat":38.2683,"lng":140.8694,"iso3":"JPN","name":"Sendai"},{"lat":35.6073,"lng":140.1064,"iso3":"JPN","name":"Chiba"},{"lat":35.6464,"lng":139.6533,"iso3":"JPN","name":"Setagaya"},{"lat":33.8833,"lng":130.8833,"iso3":"JPN","name":"Kitakyūshū"},{"lat":36.1086,"lng":139.795,"iso3":"JPN","name":"Sakai"},{"lat":37.9161,"lng":139.0364,"iso3":"JPN","name":"Niigata"},{"lat":34.7167,"lng":137.7333,"iso3":"JPN","name":"Hamamatsu"},{"lat":35.75,"lng":139.6167,"iso3":"JPN","name":"Nerima"},{"lat":35.5614,"lng":139.7161,"iso3":"JPN","name":"Ōta-ku"},{"lat":32.8031,"lng":130.7078,"iso3":"JPN","name":"Kumamoto"},{"lat":35.5667,"lng":139.3667,"iso3":"JPN","name":"Sagamihara"},{"lat":34.65,"lng":133.9167,"iso3":"JPN","name":"Okayama"},{"lat":35.6924,"lng":139.8757,"iso3":"JPN","name":"Edogawa"},{"lat":35.7833,"lng":139.8,"iso3":"JPN","name":"Adachi"},{"lat":34.9756,"lng":138.3825,"iso3":"JPN","name":"Shizuoka"},{"lat":41.8958,"lng":140.6944,"iso3":"JPN","name":"Honchō"},{"lat":35.8078,"lng":139.7242,"iso3":"JPN","name":"Kawaguchi"},{"lat":35.7667,"lng":139.6833,"iso3":"JPN","name":"Itabashi"},{"lat":35.6833,"lng":139.6167,"iso3":"JPN","name":"Suginami-ku"},{"lat":31.58,"lng":130.5281,"iso3":"JPN","name":"Kagoshima"},{"lat":35.6667,"lng":139.3167,"iso3":"JPN","name":"Hachiōji"},{"lat":35.6667,"lng":139.8167,"iso3":"JPN","name":"Kōtō-ku"},{"lat":34.8167,"lng":134.6833,"iso3":"JPN","name":"Himeji"},{"lat":36.55,"lng":139.8833,"iso3":"JPN","name":"Utsunomiya"},{"lat":33.8333,"lng":132.7667,"iso3":"JPN","name":"Matsuyama"},{"lat":34.9894,"lng":134.7631,"iso3":"JPN","name":"Ichikawa"},{"lat":35.7878,"lng":139.9031,"iso3":"JPN","name":"Matsudo"},{"lat":34.6794,"lng":135.6008,"iso3":"JPN","name":"Higashi-ōsaka"},{"lat":34.7333,"lng":135.3333,"iso3":"JPN","name":"Nishinomiya-hama"},{"lat":33.2333,"lng":131.6067,"iso3":"JPN","name":"Ōita"},{"lat":34.585,"lng":133.7719,"iso3":"JPN","name":"Kurashiki"},{"lat":35.7333,"lng":139.85,"iso3":"JPN","name":"Katsushika-ku"},{"lat":36.5611,"lng":136.6565,"iso3":"JPN","name":"Kanazawa"},{"lat":41.43,"lng":140.1106,"iso3":"JPN","name":"Fukuyama"},{"lat":34.7333,"lng":135.4,"iso3":"JPN","name":"Amagasaki"},{"lat":35.3388,"lng":139.4911,"iso3":"JPN","name":"Fujisawa"},{"lat":35.5486,"lng":139.4467,"iso3":"JPN","name":"Machida"},{"lat":35.8544,"lng":139.9689,"iso3":"JPN","name":"Kashiwa"},{"lat":35.6,"lng":139.7333,"iso3":"JPN","name":"Shinagawa-ku"},{"lat":40.8222,"lng":140.7475,"iso3":"JPN","name":"Aomori"},{"lat":35.0833,"lng":137.1567,"iso3":"JPN","name":"Toyota"},{"lat":34.35,"lng":134.05,"iso3":"JPN","name":"Takamatsu"},{"lat":36.7,"lng":137.22,"iso3":"JPN","name":"Toyama"},{"lat":34.7833,"lng":135.4667,"iso3":"JPN","name":"Toyonaka"},{"lat":32.7833,"lng":129.8667,"iso3":"JPN","name":"Nagasaki"},{"lat":34.8167,"lng":135.65,"iso3":"JPN","name":"Hirakata"},{"lat":35.4167,"lng":136.7667,"iso3":"JPN","name":"Gifu"},{"lat":31.9167,"lng":131.4167,"iso3":"JPN","name":"Miyazaki"},{"lat":34.7667,"lng":135.5167,"iso3":"JPN","name":"Minamisuita"},{"lat":35.25,"lng":139.6667,"iso3":"JPN","name":"Yokosuka"},{"lat":34.95,"lng":137.1667,"iso3":"JPN","name":"Okazaki"},{"lat":35.3728,"lng":140.3689,"iso3":"JPN","name":"Ichinomiya"},{"lat":34.7692,"lng":137.3916,"iso3":"JPN","name":"Toyohashi"},{"lat":35.75,"lng":139.7333,"iso3":"JPN","name":"Kita-ku"},{"lat":36.3167,"lng":139,"iso3":"JPN","name":"Takasaki"},{"lat":36.6486,"lng":138.1928,"iso3":"JPN","name":"Nagano"},{"lat":35.7,"lng":139.7167,"iso3":"JPN","name":"Shinjuku"},{"lat":36.7419,"lng":138.3694,"iso3":"JPN","name":"Nakano"},{"lat":35.0231,"lng":136.6739,"iso3":"JPN","name":"Kawagoe"},{"lat":34.2333,"lng":135.1667,"iso3":"JPN","name":"Wakayama"},{"lat":35.8911,"lng":139.7908,"iso3":"JPN","name":"Koshigaya"},{"lat":34.85,"lng":135.6167,"iso3":"JPN","name":"Takatsuki"},{"lat":35.7994,"lng":139.4689,"iso3":"JPN","name":"Tokorozawa"},{"lat":35.0167,"lng":135.85,"iso3":"JPN","name":"Ōtsu"},{"lat":37.0333,"lng":140.8833,"iso3":"JPN","name":"Iwaki"},{"lat":40.6031,"lng":140.4642,"iso3":"JPN","name":"Hirosaki"},{"lat":36.3833,"lng":139.0667,"iso3":"JPN","name":"Maebashi"},{"lat":43.7706,"lng":142.365,"iso3":"JPN","name":"Asahikawa"},{"lat":37.4128,"lng":140.295,"iso3":"JPN","name":"Koriyama"},{"lat":34.7572,"lng":138.9875,"iso3":"JPN","name":"Kōchi"},{"lat":26.2122,"lng":127.6789,"iso3":"JPN","name":"Naha"},{"lat":35.7333,"lng":139.7167,"iso3":"JPN","name":"Toshima"},{"lat":34.9667,"lng":136.6167,"iso3":"JPN","name":"Yokkaichi"},{"lat":35.2477,"lng":136.9724,"iso3":"JPN","name":"Kasugai"},{"lat":35.6333,"lng":139.6833,"iso3":"JPN","name":"Meguro"},{"lat":34.6431,"lng":134.9975,"iso3":"JPN","name":"Ōakashichō"},{"lat":33.3167,"lng":130.5167,"iso3":"JPN","name":"Kurume"},{"lat":39.7197,"lng":140.1025,"iso3":"JPN","name":"Akita"},{"lat":35.7,"lng":139.8167,"iso3":"JPN","name":"Sumida"},{"lat":39.6833,"lng":141.15,"iso3":"JPN","name":"Morioka"},{"lat":36.2869,"lng":140.4247,"iso3":"JPN","name":"Ibaraki"},{"lat":37.7608,"lng":140.4733,"iso3":"JPN","name":"Fukushima"},{"lat":34.7186,"lng":136.5056,"iso3":"JPN","name":"Tsu"},{"lat":35.6581,"lng":139.7514,"iso3":"JPN","name":"Minato"},{"lat":34.3925,"lng":132.5044,"iso3":"JPN","name":"Fuchū"},{"lat":36.3667,"lng":140.4667,"iso3":"JPN","name":"Mito"},{"lat":35.4981,"lng":140.1156,"iso3":"JPN","name":"Ichihara"},{"lat":34.9267,"lng":135.6956,"iso3":"JPN","name":"Nagaoka"},{"lat":34.7569,"lng":134.8414,"iso3":"JPN","name":"Kakogawachō-honmachi"},{"lat":35.3231,"lng":139.3422,"iso3":"JPN","name":"Hiratsuka"},{"lat":36.0641,"lng":136.2196,"iso3":"JPN","name":"Fukui"},{"lat":35.8256,"lng":139.8056,"iso3":"JPN","name":"Sōka"},{"lat":35.7167,"lng":139.75,"iso3":"JPN","name":"Bunkyō-ku"},{"lat":34.0667,"lng":134.55,"iso3":"JPN","name":"Tokushima"},{"lat":33.95,"lng":130.9333,"iso3":"JPN","name":"Shinozaki"},{"lat":41.7686,"lng":140.7289,"iso3":"JPN","name":"Hakodate"},{"lat":35.6506,"lng":139.5408,"iso3":"JPN","name":"Chōfugaoka"},{"lat":35.6583,"lng":139.7014,"iso3":"JPN","name":"Shibuya-ku"},{"lat":35.3339,"lng":139.4047,"iso3":"JPN","name":"Chigasaki"},{"lat":35.4693,"lng":139.4616,"iso3":"JPN","name":"Yato"},{"lat":35.5061,"lng":136.7814,"iso3":"JPN","name":"Yamagata"},{"lat":36.0333,"lng":140.0667,"iso3":"JPN","name":"Tsukuba-kenkyūgakuen-toshi"},{"lat":35.1614,"lng":138.6764,"iso3":"JPN","name":"Fuji"},{"lat":33.18,"lng":129.7156,"iso3":"JPN","name":"Sasebo"},{"lat":35.7333,"lng":139.7833,"iso3":"JPN","name":"Arakawa"},{"lat":36.2381,"lng":137.9719,"iso3":"JPN","name":"Matsumoto"},{"lat":33.2667,"lng":130.3,"iso3":"JPN","name":"Saga"},{"lat":35.9753,"lng":139.7525,"iso3":"JPN","name":"Kasukabe"},{"lat":35.9775,"lng":139.5933,"iso3":"JPN","name":"Ageoshimo"},{"lat":35.7126,"lng":139.78,"iso3":"JPN","name":"Taitō"},{"lat":34.8114,"lng":135.3406,"iso3":"JPN","name":"Takarazuka"},{"lat":35.4333,"lng":139.3667,"iso3":"JPN","name":"Atsugichō"},{"lat":36.2917,"lng":139.3758,"iso3":"JPN","name":"Ōta"},{"lat":40.5122,"lng":141.4883,"iso3":"JPN","name":"Hachinohe"},{"lat":35.7258,"lng":139.5386,"iso3":"JPN","name":"Nishitōkyō"},{"lat":34.2492,"lng":132.5658,"iso3":"JPN","name":"Kure"},{"lat":36.3167,"lng":139.2,"iso3":"JPN","name":"Isesaki"},{"lat":35.7285,"lng":139.4774,"iso3":"JPN","name":"Kodaira"},{"lat":34.7867,"lng":135.4056,"iso3":"JPN","name":"Itami"},{"lat":35.6833,"lng":139.5594,"iso3":"JPN","name":"Kamirenjaku"},{"lat":35.8561,"lng":139.9025,"iso3":"JPN","name":"Nagareyama"},{"lat":36.1814,"lng":139.8914,"iso3":"JPN","name":"Yachiyo"},{"lat":35.4681,"lng":133.0486,"iso3":"JPN","name":"Matsue"},{"lat":36.345,"lng":140.3042,"iso3":"JPN","name":"Kasama"},{"lat":34.4167,"lng":132.7333,"iso3":"JPN","name":"Higashi-Hiroshima"},{"lat":35.0181,"lng":136.2461,"iso3":"JPN","name":"Hino"},{"lat":34.8822,"lng":136.5842,"iso3":"JPN","name":"Suzuka"},{"lat":36.1472,"lng":139.3886,"iso3":"JPN","name":"Kumagaya"},{"lat":34.1781,"lng":131.4739,"iso3":"JPN","name":"Yamaguchi"},{"lat":34.9667,"lng":137.0833,"iso3":"JPN","name":"Anjōmachi"},{"lat":35.2647,"lng":139.1522,"iso3":"JPN","name":"Odawara"},{"lat":34.4667,"lng":135.3667,"iso3":"JPN","name":"Kishiwada"},{"lat":35.0956,"lng":138.8636,"iso3":"JPN","name":"Numazu"},{"lat":35.7139,"lng":139.4079,"iso3":"JPN","name":"Tachikawa"},{"lat":35.6667,"lng":138.5667,"iso3":"JPN","name":"Kōfu"},{"lat":35.5011,"lng":134.235,"iso3":"JPN","name":"Tottori"},{"lat":37.15,"lng":138.2333,"iso3":"JPN","name":"Jōetsu"},{"lat":34.8268,"lng":137.3759,"iso3":"JPN","name":"Toyokawa"},{"lat":35.6667,"lng":139.7667,"iso3":"JPN","name":"Chūō-ku"},{"lat":35.6808,"lng":140.0267,"iso3":"JPN","name":"Narashino"},{"lat":34.8808,"lng":135.7794,"iso3":"JPN","name":"Uji"},{"lat":35.6536,"lng":139.9017,"iso3":"JPN","name":"Urayasu"},{"lat":35.3197,"lng":139.5525,"iso3":"JPN","name":"Kamakurayama"},{"lat":36.6,"lng":140.65,"iso3":"JPN","name":"Hitachi"},{"lat":35.3681,"lng":132.755,"iso3":"JPN","name":"Izumo"},{"lat":35.7933,"lng":139.5653,"iso3":"JPN","name":"Niiza"},{"lat":36.6853,"lng":139.9664,"iso3":"JPN","name":"Sakura"},{"lat":42.6341,"lng":141.6055,"iso3":"JPN","name":"Tomakomai"},{"lat":34.8667,"lng":137.0667,"iso3":"JPN","name":"Nishio"},{"lat":35.3667,"lng":138.9833,"iso3":"JPN","name":"Oyama"},{"lat":34.7178,"lng":137.8514,"iso3":"JPN","name":"Iwata"},{"lat":36.7541,"lng":137.0257,"iso3":"JPN","name":"Takaoka"},{"lat":42.9236,"lng":143.1967,"iso3":"JPN","name":"Obihiro"},{"lat":35.3747,"lng":139.2203,"iso3":"JPN","name":"Hadano"},{"lat":42.9961,"lng":144.4661,"iso3":"JPN","name":"Kushiro"},{"lat":33.9517,"lng":131.2467,"iso3":"JPN","name":"Ube"},{"lat":35.7178,"lng":139.5661,"iso3":"JPN","name":"Musashino"},{"lat":31.7197,"lng":131.0617,"iso3":"JPN","name":"Miyakonojō"},{"lat":35.7547,"lng":139.4686,"iso3":"JPN","name":"Higashimurayama"},{"lat":35.3594,"lng":136.6128,"iso3":"JPN","name":"Ōgaki"},{"lat":34.5781,"lng":136.5275,"iso3":"JPN","name":"Matsuzaka"},{"lat":34.755,"lng":134.3903,"iso3":"JPN","name":"Kariya"},{"lat":36.3964,"lng":140.5344,"iso3":"JPN","name":"Hitachi-Naka"},{"lat":34.4919,"lng":133.9458,"iso3":"JPN","name":"Tama"},{"lat":36.3824,"lng":139.7341,"iso3":"JPN","name":"Tochigi"},{"lat":35.955,"lng":139.8747,"iso3":"JPN","name":"Noda"},{"lat":36.4019,"lng":138.2491,"iso3":"JPN","name":"Ueda"},{"lat":34.7358,"lng":135.5617,"iso3":"JPN","name":"Moriguchi"},{"lat":34.83,"lng":135.4172,"iso3":"JPN","name":"Kawashiri"},{"lat":36.0622,"lng":139.6669,"iso3":"JPN","name":"Kukichūō"},{"lat":35.7972,"lng":139.5936,"iso3":"JPN","name":"Asaka"},{"lat":35.8531,"lng":139.4122,"iso3":"JPN","name":"Sayama"},{"lat":35.2833,"lng":136.9167,"iso3":"JPN","name":"Komaki"},{"lat":35.8175,"lng":139.6778,"iso3":"JPN","name":"Toda"},{"lat":34.0661,"lng":132.9978,"iso3":"JPN","name":"Imabari"},{"lat":35.8358,"lng":139.3911,"iso3":"JPN","name":"Iruma"},{"lat":35.4281,"lng":133.3311,"iso3":"JPN","name":"Yonago"},{"lat":39.4617,"lng":140.5825,"iso3":"JPN","name":"Misato"},{"lat":36.6206,"lng":138.5961,"iso3":"JPN","name":"Kusatsu"},{"lat":35.3989,"lng":136.8486,"iso3":"JPN","name":"Kakamigahara"},{"lat":26.3342,"lng":127.8056,"iso3":"JPN","name":"Okinawa"},{"lat":36.3403,"lng":139.4497,"iso3":"JPN","name":"Ashikaga"},{"lat":36.1975,"lng":139.2814,"iso3":"JPN","name":"Fukayachō"},{"lat":34.9194,"lng":138.2339,"iso3":"JPN","name":"Fujita"},{"lat":35.7108,"lng":139.4622,"iso3":"JPN","name":"Kokubunji"},{"lat":35.4464,"lng":139.3908,"iso3":"JPN","name":"Ebina"},{"lat":35.0622,"lng":136.6839,"iso3":"JPN","name":"Kuwana"},{"lat":34.8269,"lng":135.4706,"iso3":"JPN","name":"Minō"},{"lat":33.7333,"lng":130.4667,"iso3":"JPN","name":"Koga"},{"lat":38.4281,"lng":141.3061,"iso3":"JPN","name":"Ishizaki"},{"lat":36.0667,"lng":140.2,"iso3":"JPN","name":"Tsuchiura"},{"lat":35.6994,"lng":139.5031,"iso3":"JPN","name":"Koganei"},{"lat":35.4886,"lng":139.4075,"iso3":"JPN","name":"Zama"},{"lat":34.0553,"lng":131.8061,"iso3":"JPN","name":"Shūnan"},{"lat":35.3761,"lng":139.9169,"iso3":"JPN","name":"Kisarazu"},{"lat":34.8667,"lng":138.3167,"iso3":"JPN","name":"Yaizu"},{"lat":35.25,"lng":136.7833,"iso3":"JPN","name":"Inazawa"},{"lat":32.8442,"lng":130.0536,"iso3":"JPN","name":"Isahaya"},{"lat":35.7883,"lng":139.275,"iso3":"JPN","name":"Ōme"},{"lat":35.8642,"lng":140.0282,"iso3":"JPN","name":"Abiko"},{"lat":35.7833,"lng":140.3167,"iso3":"JPN","name":"Narita"},{"lat":34.4089,"lng":133.205,"iso3":"JPN","name":"Onomichi"},{"lat":34.1669,"lng":132.2197,"iso3":"JPN","name":"Iwakuni"},{"lat":35.2167,"lng":137.0833,"iso3":"JPN","name":"Seto"},{"lat":35.2222,"lng":138.6214,"iso3":"JPN","name":"Ōmiyachō"},{"lat":38.5772,"lng":140.9556,"iso3":"JPN","name":"Ōsaki"},{"lat":33.6458,"lng":130.6914,"iso3":"JPN","name":"Iizuka"},{"lat":34.7119,"lng":135.6233,"iso3":"JPN","name":"Daitōchō"},{"lat":34.5781,"lng":135.5517,"iso3":"JPN","name":"Matsubara"},{"lat":31.7411,"lng":130.7631,"iso3":"JPN","name":"Kirishima"},{"lat":26.3792,"lng":127.8575,"iso3":"JPN","name":"Uruma"},{"lat":34.4833,"lng":136.7167,"iso3":"JPN","name":"Ise"},{"lat":43.9114,"lng":144.6708,"iso3":"JPN","name":"Honmachi"},{"lat":34.5792,"lng":135.6286,"iso3":"JPN","name":"Kashiwara"},{"lat":26.2458,"lng":127.7219,"iso3":"JPN","name":"Urasoe"},{"lat":38.7217,"lng":139.8217,"iso3":"JPN","name":"Tsuruoka"},{"lat":43.1039,"lng":141.5361,"iso3":"JPN","name":"Ebetsu"},{"lat":35.8794,"lng":139.5197,"iso3":"JPN","name":"Fujimino"},{"lat":34.8992,"lng":136.9267,"iso3":"JPN","name":"Handa"},{"lat":33.5328,"lng":130.4703,"iso3":"JPN","name":"Kasuga"},{"lat":35.7056,"lng":139.3536,"iso3":"JPN","name":"Akishima"},{"lat":36.0658,"lng":139.5222,"iso3":"JPN","name":"Kōnosu"},{"lat":34.6919,"lng":135.7006,"iso3":"JPN","name":"Ikoma"},{"lat":37.4947,"lng":139.9297,"iso3":"JPN","name":"Aizuwakamatsu"},{"lat":32.5822,"lng":131.665,"iso3":"JPN","name":"Nobeoka"},{"lat":33.2847,"lng":131.4911,"iso3":"JPN","name":"Beppu"},{"lat":35.6536,"lng":139.7092,"iso3":"JPN","name":"Shibuya"},{"lat":33.45,"lng":129.9686,"iso3":"JPN","name":"Karatsu"},{"lat":35.9147,"lng":138.2408,"iso3":"JPN","name":"Fujimi"},{"lat":36.9617,"lng":140.0461,"iso3":"JPN","name":"Nasushiobara"},{"lat":36.4731,"lng":140.5661,"iso3":"JPN","name":"Tōkai"},{"lat":43.8081,"lng":143.8942,"iso3":"JPN","name":"Kōenchō"},{"lat":33.9603,"lng":133.2834,"iso3":"JPN","name":"Niihama"},{"lat":36.3144,"lng":139.5783,"iso3":"JPN","name":"Sano"},{"lat":34.35,"lng":132.3333,"iso3":"JPN","name":"Hatsukaichi"},{"lat":35.7769,"lng":140.0008,"iso3":"JPN","name":"Kamagaya"},{"lat":34.7686,"lng":137.9983,"iso3":"JPN","name":"Kakegawa"},{"lat":35.3833,"lng":136.2833,"iso3":"JPN","name":"Nagahama"},{"lat":34.05,"lng":131.5667,"iso3":"JPN","name":"Hōfu"},{"lat":35.25,"lng":136.25,"iso3":"JPN","name":"Hikone"},{"lat":43.1833,"lng":141,"iso3":"JPN","name":"Otaru"},{"lat":35.1128,"lng":136.2078,"iso3":"JPN","name":"Higashiōmi"},{"lat":39.1444,"lng":141.1389,"iso3":"JPN","name":"Ōshū"},{"lat":34.5578,"lng":135.6061,"iso3":"JPN","name":"Habikino"},{"lat":38.9347,"lng":141.1266,"iso3":"JPN","name":"Ichinoseki"},{"lat":34.4992,"lng":135.5972,"iso3":"JPN","name":"Tondabayashichō"},{"lat":36.1314,"lng":139.6018,"iso3":"JPN","name":"Kazo"},{"lat":33.0303,"lng":130.4461,"iso3":"JPN","name":"Ōmuta"},{"lat":36.5144,"lng":136.5656,"iso3":"JPN","name":"Shirayamamachi"},{"lat":34.2894,"lng":133.7978,"iso3":"JPN","name":"Marugame"},{"lat":34.8894,"lng":135.2253,"iso3":"JPN","name":"Sandachō"},{"lat":35.1186,"lng":138.9186,"iso3":"JPN","name":"Mineshita"},{"lat":36.4214,"lng":137.8747,"iso3":"JPN","name":"Ikeda"},{"lat":35.3328,"lng":137.1322,"iso3":"JPN","name":"Tajimi"},{"lat":36.4167,"lng":136.45,"iso3":"JPN","name":"Komatsu"},{"lat":36.4053,"lng":139.3306,"iso3":"JPN","name":"Kiryū"},{"lat":35.9114,"lng":140.0503,"iso3":"JPN","name":"Toride"},{"lat":33.5364,"lng":130.4789,"iso3":"JPN","name":"Ōnojō"},{"lat":35.8322,"lng":140.1458,"iso3":"JPN","name":"Inzai"},{"lat":33.4964,"lng":130.5156,"iso3":"JPN","name":"Chikushino"},{"lat":26.2817,"lng":127.7783,"iso3":"JPN","name":"Ginowan"},{"lat":33.9196,"lng":133.1812,"iso3":"JPN","name":"Saijō"},{"lat":35.4028,"lng":139.315,"iso3":"JPN","name":"Isehara"},{"lat":35.9572,"lng":139.4031,"iso3":"JPN","name":"Sakado"},{"lat":34.4581,"lng":135.5641,"iso3":"JPN","name":"Kawachinagano"},{"lat":31.3783,"lng":130.8522,"iso3":"JPN","name":"Kanoya"},{"lat":33.5642,"lng":133.7006,"iso3":"JPN","name":"Kōnan"},{"lat":33.8939,"lng":130.6639,"iso3":"JPN","name":"Ashiya"},{"lat":35.8228,"lng":139.8392,"iso3":"JPN","name":"Yashio"},{"lat":35.6381,"lng":139.5047,"iso3":"JPN","name":"Inagi"},{"lat":35.6347,"lng":139.5786,"iso3":"JPN","name":"Komae"},{"lat":35.67,"lng":140.1683,"iso3":"JPN","name":"Yotsukaidō"},{"lat":35.1333,"lng":137.0333,"iso3":"JPN","name":"Nisshin"},{"lat":35.0167,"lng":136.9667,"iso3":"JPN","name":"Ōbu"},{"lat":34.7772,"lng":135.5622,"iso3":"JPN","name":"Settsu"},{"lat":35.7814,"lng":139.6058,"iso3":"JPN","name":"Wakō"},{"lat":35.1884,"lng":136.8037,"iso3":"JPN","name":"Ama"},{"lat":35.2503,"lng":136.8861,"iso3":"JPN","name":"Kitanagoya"},{"lat":35.7456,"lng":139.4267,"iso3":"JPN","name":"Higashiyamato"},{"lat":34.7658,"lng":134.7906,"iso3":"JPN","name":"Takasagochō-takasemachi"},{"lat":35.8256,"lng":139.6794,"iso3":"JPN","name":"Warabi"},{"lat":35.44,"lng":139.4308,"iso3":"JPN","name":"Ayase"},{"lat":35.2167,"lng":137.0333,"iso3":"JPN","name":"Owariasahi"},{"lat":35.6839,"lng":139.4414,"iso3":"JPN","name":"Kunitachi"},{"lat":35.8367,"lng":139.5803,"iso3":"JPN","name":"Shinkai"},{"lat":35.7858,"lng":139.5264,"iso3":"JPN","name":"Kiyose"},{"lat":34.5414,"lng":135.6992,"iso3":"JPN","name":"Kashiba"},{"lat":34.5044,"lng":135.4103,"iso3":"JPN","name":"Izumiōtsu"},{"lat":34.7881,"lng":135.68,"iso3":"JPN","name":"Katano"},{"lat":36.0028,"lng":139.5583,"iso3":"JPN","name":"Okegawa"},{"lat":34.8531,"lng":135.78,"iso3":"JPN","name":"Jōyō"},{"lat":35,"lng":137.1167,"iso3":"JPN","name":"Chiryū"},{"lat":35.7547,"lng":139.3875,"iso3":"JPN","name":"Musashimurayama"},{"lat":35.2,"lng":136.85,"iso3":"JPN","name":"Kiyosu"},{"lat":33.5128,"lng":130.5239,"iso3":"JPN","name":"Dazaifu"},{"lat":34.8833,"lng":137,"iso3":"JPN","name":"Hekinan"},{"lat":35.8958,"lng":139.8556,"iso3":"JPN","name":"Yoshikawa"},{"lat":35.9344,"lng":139.3931,"iso3":"JPN","name":"Tsurugashima"},{"lat":34.8756,"lng":135.7078,"iso3":"JPN","name":"Yawata-shimizui"},{"lat":35.694,"lng":139.7536,"iso3":"JPN","name":"Chiyoda-ku"},{"lat":35.05,"lng":137.0167,"iso3":"JPN","name":"Toyoake"},{"lat":35.8267,"lng":139.7412,"iso3":"JPN","name":"Hatogaya-honchō"},{"lat":34.5747,"lng":135.5975,"iso3":"JPN","name":"Fujiidera"},{"lat":36.0269,"lng":139.53,"iso3":"JPN","name":"Kitamoto"},{"lat":26.1772,"lng":127.6811,"iso3":"JPN","name":"Tomigusuku"},{"lat":35.1842,"lng":137.0486,"iso3":"JPN","name":"Nagakute"},{"lat":38.2939,"lng":141.0044,"iso3":"JPN","name":"Tagajō"},{"lat":34.515,"lng":135.7364,"iso3":"JPN","name":"Yamatotakada"},{"lat":35.9942,"lng":139.6622,"iso3":"JPN","name":"Hasuda"},{"lat":34.5036,"lng":135.5556,"iso3":"JPN","name":"Ōsakasayama"},{"lat":34.9486,"lng":135.6983,"iso3":"JPN","name":"Mukōchō"},{"lat":34.2028,"lng":129.2875,"iso3":"JPN","name":"Tsushima"},{"lat":35.7386,"lng":139.3267,"iso3":"JPN","name":"Fussa"},{"lat":26.3344,"lng":127.8057,"iso3":"JPN","name":"Koja"},{"lat":36.5194,"lng":136.6097,"iso3":"JPN","name":"Nonoichi"},{"lat":34.5206,"lng":135.4422,"iso3":"JPN","name":"Takaishi"},{"lat":35.2948,"lng":139.5781,"iso3":"JPN","name":"Zushi"},{"lat":35.7672,"lng":139.3111,"iso3":"JPN","name":"Hamura"},{"lat":34.74,"lng":135.6394,"iso3":"JPN","name":"Shijōnawate"},{"lat":38.3144,"lng":141.0222,"iso3":"JPN","name":"Shiogama"},{"lat":36.0189,"lng":139.6769,"iso3":"JPN","name":"Shiraoka"},{"lat":35.2833,"lng":136.8667,"iso3":"JPN","name":"Iwakura"},{"lat":35.4903,"lng":135.5511,"iso3":"JPN","name":"Takahama"},{"lat":35.3731,"lng":139.3842,"iso3":"JPN","name":"Suzukawa"},{"lat":33.6108,"lng":130.4806,"iso3":"JPN","name":"Kasuya"},{"lat":36,"lng":139.6239,"iso3":"JPN","name":"Inuma"},{"lat":35.0969,"lng":137.0525,"iso3":"JPN","name":"Tōgō"},{"lat":34.4014,"lng":135.3561,"iso3":"JPN","name":"Kumatori"},{"lat":26.1911,"lng":127.7286,"iso3":"JPN","name":"Katsuren-haebaru"},{"lat":36.2478,"lng":139.405,"iso3":"JPN","name":"Ōizumi"},{"lat":33.8167,"lng":130.709,"iso3":"JPN","name":"Nakama"},{"lat":35.8283,"lng":139.5267,"iso3":"JPN","name":"Miyoshidai"},{"lat":35.1333,"lng":136.8,"iso3":"JPN","name":"Kanie"},{"lat":35.175,"lng":136.82,"iso3":"JPN","name":"Ōharu"},{"lat":34.7153,"lng":134.8681,"iso3":"JPN","name":"Harima"},{"lat":34.1267,"lng":134.495,"iso3":"JPN","name":"Aizumi"},{"lat":35.3592,"lng":136.9131,"iso3":"JPN","name":"Fusō"},{"lat":26.2261,"lng":127.7656,"iso3":"JPN","name":"Nishihara"},{"lat":36.0225,"lng":139.7228,"iso3":"JPN","name":"Minamishiro"},{"lat":34.5428,"lng":135.7508,"iso3":"JPN","name":"Kōryō"},{"lat":34.3722,"lng":132.5361,"iso3":"JPN","name":"Kaita"},{"lat":35.2994,"lng":139.2553,"iso3":"JPN","name":"Ninomiya"},{"lat":33.85,"lng":130.7,"iso3":"JPN","name":"Mizumaki"},{"lat":26.32,"lng":127.7639,"iso3":"JPN","name":"Chatan"},{"lat":35.3897,"lng":136.7828,"iso3":"JPN","name":"Ginan"},{"lat":34.5947,"lng":135.7069,"iso3":"JPN","name":"Ōji"},{"lat":34.6003,"lng":135.6956,"iso3":"JPN","name":"Sanga"},{"lat":34.1256,"lng":134.5469,"iso3":"JPN","name":"Kitajima"},{"lat":35.3667,"lng":136.7667,"iso3":"JPN","name":"Kasamatsuchō"},{"lat":34.5628,"lng":135.7167,"iso3":"JPN","name":"Kanmaki"},{"lat":26.1994,"lng":127.7547,"iso3":"JPN","name":"Yonabaru"},{"lat":35.6281,"lng":138.535,"iso3":"JPN","name":"Shōwa"},{"lat":35.4369,"lng":136.6861,"iso3":"JPN","name":"Kitagata"},{"lat":34.3106,"lng":133.8256,"iso3":"JPN","name":"Utazu"},{"lat":34.4869,"lng":135.4011,"iso3":"JPN","name":"Tadaoka-higashi"},{"lat":34.5783,"lng":135.7367,"iso3":"JPN","name":"Kawai"},{"lat":34.9028,"lng":135.6886,"iso3":"JPN","name":"Ōyamazaki"},{"lat":35.2508,"lng":136.9122,"iso3":"JPN","name":"Toyoyama"},{"lat":34.4067,"lng":135.3275,"iso3":"JPN","name":"Izumisano"},{"lat":35.4258,"lng":137.0611,"iso3":"JPN","name":"Kani"},{"lat":36.3072,"lng":139.9831,"iso3":"JPN","name":"Chikusei"},{"lat":35.0694,"lng":134.0044,"iso3":"JPN","name":"Tsuyama"},{"lat":38.9144,"lng":139.8364,"iso3":"JPN","name":"Sakata"},{"lat":33.5572,"lng":130.1958,"iso3":"JPN","name":"Itoshima"},{"lat":36.2489,"lng":138.4769,"iso3":"JPN","name":"Saku"},{"lat":42.8167,"lng":141.65,"iso3":"JPN","name":"Chitose"},{"lat":33.8056,"lng":130.5406,"iso3":"JPN","name":"Munakata"},{"lat":35.5147,"lng":137.8219,"iso3":"JPN","name":"Iida"},{"lat":32.9214,"lng":129.9539,"iso3":"JPN","name":"Ōmura"},{"lat":35.89,"lng":140.6647,"iso3":"JPN","name":"Kamisu"},{"lat":34.8364,"lng":138.1761,"iso3":"JPN","name":"Shimada"},{"lat":36.5672,"lng":139.745,"iso3":"JPN","name":"Kanuma"},{"lat":38.0564,"lng":140.7658,"iso3":"JPN","name":"Shibata"},{"lat":35.9956,"lng":138.1589,"iso3":"JPN","name":"Chino"},{"lat":36.3039,"lng":137.9056,"iso3":"JPN","name":"Azumino"},{"lat":37.6368,"lng":138.9617,"iso3":"JPN","name":"Sanjō"},{"lat":36.0422,"lng":139.4,"iso3":"JPN","name":"Higashi-Matsuyama"},{"lat":39.3886,"lng":141.1167,"iso3":"JPN","name":"Hanamaki Onsen"},{"lat":39.2867,"lng":141.1131,"iso3":"JPN","name":"Kitakami"},{"lat":31.8133,"lng":130.3042,"iso3":"JPN","name":"Satsumasendai"},{"lat":36.7125,"lng":137.0994,"iso3":"JPN","name":"Imizuchō"},{"lat":34.3975,"lng":133.0786,"iso3":"JPN","name":"Mihara"},{"lat":34.9661,"lng":136.1663,"iso3":"JPN","name":"Kōka"},{"lat":34.7503,"lng":137.925,"iso3":"JPN","name":"Fukuroi"},{"lat":35.4283,"lng":140.2881,"iso3":"JPN","name":"Mobara"},{"lat":35.3086,"lng":138.935,"iso3":"JPN","name":"Gotenba"},{"lat":35.0133,"lng":135.5725,"iso3":"JPN","name":"Kameoka"},{"lat":34.4378,"lng":135.3586,"iso3":"JPN","name":"Kaizuka"},{"lat":34.7686,"lng":136.13,"iso3":"JPN","name":"Iga"},{"lat":34.6494,"lng":135.7828,"iso3":"JPN","name":"Kitakōriyamachō"},{"lat":35.9833,"lng":140.15,"iso3":"JPN","name":"Ushiku"},{"lat":33.0617,"lng":130.5414,"iso3":"JPN","name":"Sekimachi"},{"lat":36.1458,"lng":137.2522,"iso3":"JPN","name":"Takayama"},{"lat":35.0589,"lng":135.9944,"iso3":"JPN","name":"Moriyama"},{"lat":39.3137,"lng":140.5666,"iso3":"JPN","name":"Yokotemachi"},{"lat":33.5983,"lng":131.1883,"iso3":"JPN","name":"Nakatsu"},{"lat":35.1283,"lng":136.0981,"iso3":"JPN","name":"Ōmihachiman"},{"lat":42.3153,"lng":140.9736,"iso3":"JPN","name":"Muroran"},{"lat":33.9808,"lng":133.5492,"iso3":"JPN","name":"Shikokuchūō"},{"lat":35.3306,"lng":139.9025,"iso3":"JPN","name":"Kimitsu"},{"lat":37.3719,"lng":138.559,"iso3":"JPN","name":"Kashiwazaki"},{"lat":37.9167,"lng":140.1167,"iso3":"JPN","name":"Yonezawa"},{"lat":34.8264,"lng":137.2196,"iso3":"JPN","name":"Gamagōri"},{"lat":35.7289,"lng":139.2942,"iso3":"JPN","name":"Akiruno"},{"lat":35.9742,"lng":136.1297,"iso3":"JPN","name":"Echizen"},{"lat":38.1717,"lng":140.8919,"iso3":"JPN","name":"Natori-shi"},{"lat":36.1389,"lng":139.4558,"iso3":"JPN","name":"Gyōda"},{"lat":35.8519,"lng":139.3181,"iso3":"JPN","name":"Hannō"},{"lat":43.1961,"lng":141.7758,"iso3":"JPN","name":"Iwamizawa"},{"lat":36.4403,"lng":140.0131,"iso3":"JPN","name":"Mooka"},{"lat":35.45,"lng":135.3333,"iso3":"JPN","name":"Maizuru"},{"lat":34.7369,"lng":135.8208,"iso3":"JPN","name":"Kizugawa"},{"lat":36.2439,"lng":139.1903,"iso3":"JPN","name":"Honjō"},{"lat":37.6667,"lng":138.9667,"iso3":"JPN","name":"Tsubame"},{"lat":35.5333,"lng":134.8167,"iso3":"JPN","name":"Toyooka"},{"lat":36.7198,"lng":139.6982,"iso3":"JPN","name":"Nikkō"},{"lat":35.9167,"lng":140.1833,"iso3":"JPN","name":"Ryūgasaki"},{"lat":31.7283,"lng":130.6278,"iso3":"JPN","name":"Aira"},{"lat":34.6333,"lng":136.1,"iso3":"JPN","name":"Nabari"},{"lat":35.6608,"lng":138.5158,"iso3":"JPN","name":"Kai"},{"lat":38.6919,"lng":141.1878,"iso3":"JPN","name":"Toyomamachi-teraike"},{"lat":35.5108,"lng":133.4961,"iso3":"JPN","name":"Daisen"},{"lat":35.2967,"lng":135.1264,"iso3":"JPN","name":"Fukuchiyama"},{"lat":33.3778,"lng":130.5061,"iso3":"JPN","name":"Tosu"},{"lat":34.8144,"lng":135.7678,"iso3":"JPN","name":"Kyōtanabe"},{"lat":35.4875,"lng":137.5006,"iso3":"JPN","name":"Nakatsugawa"},{"lat":37.2865,"lng":140.3727,"iso3":"JPN","name":"Sasagawa"},{"lat":36.245,"lng":139.5422,"iso3":"JPN","name":"Tatebayashi"},{"lat":32.4586,"lng":130.1931,"iso3":"JPN","name":"Amakusa"},{"lat":34.2683,"lng":134.1344,"iso3":"JPN","name":"Miki"},{"lat":34.8581,"lng":134.5456,"iso3":"JPN","name":"Tatsunochō-tominaga"},{"lat":39.3858,"lng":140.0489,"iso3":"JPN","name":"Yurihonjō"},{"lat":35.3833,"lng":136.95,"iso3":"JPN","name":"Inuyama"},{"lat":36.4833,"lng":139,"iso3":"JPN","name":"Shibukawa"},{"lat":36.8667,"lng":140.0167,"iso3":"JPN","name":"Ōtawara"},{"lat":36.1833,"lng":140.2833,"iso3":"JPN","name":"Ishioka"},{"lat":33.7286,"lng":130.9831,"iso3":"JPN","name":"Yukuhashi"},{"lat":35.8978,"lng":140.4992,"iso3":"JPN","name":"Katori"},{"lat":35.9514,"lng":139.9756,"iso3":"JPN","name":"Moriya"},{"lat":35.0217,"lng":135.9981,"iso3":"JPN","name":"Rittō"},{"lat":42.8826,"lng":141.5778,"iso3":"JPN","name":"Eniwa"},{"lat":35.6083,"lng":138.465,"iso3":"JPN","name":"Minami-Alps"},{"lat":33.2233,"lng":132.5606,"iso3":"JPN","name":"Uwajima"},{"lat":33.9167,"lng":134.6667,"iso3":"JPN","name":"Anan"},{"lat":35.9567,"lng":136.1844,"iso3":"JPN","name":"Sabae"},{"lat":33.7333,"lng":135.3833,"iso3":"JPN","name":"Tanabe"},{"lat":34.6728,"lng":133.7467,"iso3":"JPN","name":"Sōja"},{"lat":40.2717,"lng":140.5647,"iso3":"JPN","name":"Ōdate"},{"lat":35.6472,"lng":138.64,"iso3":"JPN","name":"Fuefuki"},{"lat":33.1042,"lng":130.0986,"iso3":"JPN","name":"Kashima"},{"lat":35.3167,"lng":136.7,"iso3":"JPN","name":"Hashima"},{"lat":35.6659,"lng":140.3179,"iso3":"JPN","name":"Yachimata"},{"lat":33.7669,"lng":130.4911,"iso3":"JPN","name":"Fukutsu"},{"lat":32.9603,"lng":131.8994,"iso3":"JPN","name":"Saiki"},{"lat":36.1167,"lng":137.95,"iso3":"JPN","name":"Shiojiri"},{"lat":35.8275,"lng":137.9539,"iso3":"JPN","name":"Ina"},{"lat":34.9658,"lng":139.1019,"iso3":"JPN","name":"Itō"},{"lat":33.1631,"lng":130.4061,"iso3":"JPN","name":"Yanagawa"},{"lat":34.026,"lng":133.8072,"iso3":"JPN","name":"Miyoshi"},{"lat":35.43,"lng":139.9547,"iso3":"JPN","name":"Sodegaura"},{"lat":32.9281,"lng":130.5597,"iso3":"JPN","name":"Tamana"},{"lat":34.5967,"lng":135.8375,"iso3":"JPN","name":"Tenri"},{"lat":36.95,"lng":137.5667,"iso3":"JPN","name":"Asahi"},{"lat":35.65,"lng":136.0667,"iso3":"JPN","name":"Tsuruga"},{"lat":38.7303,"lng":141.0214,"iso3":"JPN","name":"Kurihara"},{"lat":35.7917,"lng":140.0564,"iso3":"JPN","name":"Shiroi"},{"lat":26.5917,"lng":127.9775,"iso3":"JPN","name":"Nago"},{"lat":36.3028,"lng":136.315,"iso3":"JPN","name":"Kaga"},{"lat":32.8858,"lng":130.7897,"iso3":"JPN","name":"Kōshizuka"},{"lat":36.2667,"lng":139.0667,"iso3":"JPN","name":"Fujioka"},{"lat":38.3622,"lng":140.3783,"iso3":"JPN","name":"Tendō"},{"lat":26.1181,"lng":127.6872,"iso3":"JPN","name":"Itoman"},{"lat":34.1475,"lng":133.6958,"iso3":"JPN","name":"Mitoyo"},{"lat":33.3211,"lng":130.9414,"iso3":"JPN","name":"Hita"},{"lat":35.15,"lng":136.7333,"iso3":"JPN","name":"Aisai"},{"lat":35.1772,"lng":135.0358,"iso3":"JPN","name":"Tamba"},{"lat":34.3658,"lng":135.2736,"iso3":"JPN","name":"Sennan"},{"lat":34.3167,"lng":135.6,"iso3":"JPN","name":"Hashimoto"},{"lat":33.2119,"lng":130.5578,"iso3":"JPN","name":"Yame"},{"lat":36.3872,"lng":139.8422,"iso3":"JPN","name":"Shimotsuke"},{"lat":40.6128,"lng":141.2058,"iso3":"JPN","name":"Towada"},{"lat":34.0033,"lng":131.1819,"iso3":"JPN","name":"Sanyō-Onoda"},{"lat":36.0236,"lng":139.9939,"iso3":"JPN","name":"Jōsō"},{"lat":33.3964,"lng":130.5556,"iso3":"JPN","name":"Ogōri"},{"lat":38.9083,"lng":141.57,"iso3":"JPN","name":"Kesennuma"},{"lat":32.4228,"lng":131.6239,"iso3":"JPN","name":"Hyūga"},{"lat":34.6414,"lng":137.1831,"iso3":"JPN","name":"Tahara"},{"lat":36.5307,"lng":138.1149,"iso3":"JPN","name":"Chikuma"},{"lat":37.1264,"lng":140.2108,"iso3":"JPN","name":"Shirakawa"},{"lat":35.9917,"lng":139.0856,"iso3":"JPN","name":"Chichibu"},{"lat":34.6744,"lng":132.5383,"iso3":"JPN","name":"Kitahiroshima"},{"lat":34.8833,"lng":136.8333,"iso3":"JPN","name":"Tokoname"},{"lat":42.4719,"lng":140.8647,"iso3":"JPN","name":"Date"},{"lat":34.2697,"lng":135.3625,"iso3":"JPN","name":"Kokawa"},{"lat":43.1783,"lng":141.3067,"iso3":"JPN","name":"Ishikari"},{"lat":34.7186,"lng":137.5317,"iso3":"JPN","name":"Kosai"},{"lat":35.7347,"lng":140.8267,"iso3":"JPN","name":"Choshi"},{"lat":35.56,"lng":140.3661,"iso3":"JPN","name":"Tōgane"},{"lat":35.7719,"lng":139.3539,"iso3":"JPN","name":"Mizuho"},{"lat":35.4333,"lng":137.0167,"iso3":"JPN","name":"Minokamo"},{"lat":32.6478,"lng":130.6843,"iso3":"JPN","name":"Uki"},{"lat":34.015,"lng":131.8703,"iso3":"JPN","name":"Kudamatsu"},{"lat":34.1283,"lng":133.6628,"iso3":"JPN","name":"Kan’onjichō"},{"lat":38.2239,"lng":139.4801,"iso3":"JPN","name":"Murakami"},{"lat":33.7439,"lng":130.7297,"iso3":"JPN","name":"Nōgata"},{"lat":39.7347,"lng":141.0769,"iso3":"JPN","name":"Takizawa"},{"lat":42.4803,"lng":142.0742,"iso3":"JPN","name":"Hidaka"},{"lat":35.3525,"lng":137.1833,"iso3":"JPN","name":"Toki"},{"lat":34.1667,"lng":134.6167,"iso3":"JPN","name":"Narutochō-mitsuishi"},{"lat":35.0042,"lng":136.085,"iso3":"JPN","name":"Konan"},{"lat":34.2564,"lng":135.3111,"iso3":"JPN","name":"Funato"},{"lat":37.0667,"lng":138.8833,"iso3":"JPN","name":"Minamiuonuma"},{"lat":34.5189,"lng":135.8519,"iso3":"JPN","name":"Sakurai"},{"lat":36.3264,"lng":138.8872,"iso3":"JPN","name":"Annaka"},{"lat":37.5847,"lng":140.4314,"iso3":"JPN","name":"Nihonmatsu"},{"lat":38.0183,"lng":138.3683,"iso3":"JPN","name":"Sado"},{"lat":36.1728,"lng":139.5486,"iso3":"JPN","name":"Hanyū"},{"lat":34.8992,"lng":132.08,"iso3":"JPN","name":"Hamada"},{"lat":33.8574,"lng":134.4966,"iso3":"JPN","name":"Naka"},{"lat":41.2931,"lng":141.1831,"iso3":"JPN","name":"Mutsu"},{"lat":38.4,"lng":140.8953,"iso3":"JPN","name":"Tomiya"},{"lat":33.2647,"lng":129.8808,"iso3":"JPN","name":"Imarichō-kō"},{"lat":33.5319,"lng":131.3494,"iso3":"JPN","name":"Usa"},{"lat":37.6422,"lng":140.9572,"iso3":"JPN","name":"Minami-Sōma"},{"lat":24.8056,"lng":125.2811,"iso3":"JPN","name":"Miyakojima"},{"lat":32.0906,"lng":130.3528,"iso3":"JPN","name":"Izumi"},{"lat":36.0483,"lng":139.8889,"iso3":"JPN","name":"Bandō"},{"lat":35.9631,"lng":140.0372,"iso3":"JPN","name":"Tsukubamirai"},{"lat":32.9867,"lng":130.4333,"iso3":"JPN","name":"Arao"},{"lat":36.0781,"lng":139.7258,"iso3":"JPN","name":"Satte"},{"lat":34.3594,"lng":135.2397,"iso3":"JPN","name":"Hannan"},{"lat":37.0333,"lng":136.9667,"iso3":"JPN","name":"Nanao"},{"lat":34.3164,"lng":133.8606,"iso3":"JPN","name":"Sakaidechō"},{"lat":36.3053,"lng":139.8775,"iso3":"JPN","name":"Yūki"},{"lat":35.6242,"lng":135.0611,"iso3":"JPN","name":"Kyōtango"},{"lat":39.6414,"lng":141.9572,"iso3":"JPN","name":"Miyako"},{"lat":40.8081,"lng":140.44,"iso3":"JPN","name":"Goshogawara"},{"lat":35.1739,"lng":138.9067,"iso3":"JPN","name":"Susono"},{"lat":33.9511,"lng":134.6622,"iso3":"JPN","name":"Nakagawa"},{"lat":34.9772,"lng":136.9656,"iso3":"JPN","name":"Higashiura"},{"lat":35.0675,"lng":136.0258,"iso3":"JPN","name":"Yasu"},{"lat":34.8558,"lng":136.4517,"iso3":"JPN","name":"Kameyama"},{"lat":31.6019,"lng":131.3789,"iso3":"JPN","name":"Nichinan"},{"lat":33.2122,"lng":130.5022,"iso3":"JPN","name":"Chikugo"},{"lat":40.2122,"lng":140.0267,"iso3":"JPN","name":"Noshiromachi"},{"lat":35.7267,"lng":140.3431,"iso3":"JPN","name":"Tomisato"},{"lat":36.6511,"lng":138.3069,"iso3":"JPN","name":"Suzaka"},{"lat":37.1275,"lng":138.7557,"iso3":"JPN","name":"Tōkamachi"},{"lat":33.9617,"lng":131.9422,"iso3":"JPN","name":"Hikari"},{"lat":33.4233,"lng":130.6656,"iso3":"JPN","name":"Asakura"},{"lat":36.4375,"lng":136.4961,"iso3":"JPN","name":"Nomimachi"},{"lat":36.3947,"lng":139.2811,"iso3":"JPN","name":"Midori"},{"lat":33.0167,"lng":130.6914,"iso3":"JPN","name":"Yamaga"},{"lat":36.2394,"lng":140.3525,"iso3":"JPN","name":"Omitama"},{"lat":36.0392,"lng":138.1142,"iso3":"JPN","name":"Suwa"},{"lat":36.0333,"lng":140.2,"iso3":"JPN","name":"Ami"},{"lat":35.5217,"lng":140.3211,"iso3":"JPN","name":"Ōamishirasato"},{"lat":35.6028,"lng":140.4136,"iso3":"JPN","name":"Sanmu"},{"lat":24.3333,"lng":124.15,"iso3":"JPN","name":"Ishigaki"},{"lat":34.1556,"lng":135.2092,"iso3":"JPN","name":"Shimotsuchō-kominami"},{"lat":35.4494,"lng":137.4128,"iso3":"JPN","name":"Ena"},{"lat":36.0669,"lng":138.0494,"iso3":"JPN","name":"Okaya"},{"lat":36.65,"lng":136.9667,"iso3":"JPN","name":"Tonami"},{"lat":38.4314,"lng":140.3911,"iso3":"JPN","name":"Higashine"},{"lat":33.1939,"lng":130.0192,"iso3":"JPN","name":"Takeochō-takeo"},{"lat":35.9806,"lng":136.4875,"iso3":"JPN","name":"Ono"},{"lat":36.5383,"lng":140.5311,"iso3":"JPN","name":"Hitachi-ota"},{"lat":34.7578,"lng":138.0842,"iso3":"JPN","name":"Kikugawa"},{"lat":36.5833,"lng":136.9167,"iso3":"JPN","name":"Nanto"},{"lat":37.6564,"lng":139.2264,"iso3":"JPN","name":"Gosen"},{"lat":36.26,"lng":138.89,"iso3":"JPN","name":"Tomioka"},{"lat":42.4128,"lng":141.1067,"iso3":"JPN","name":"Noboribetsu"},{"lat":35.4875,"lng":138.8077,"iso3":"JPN","name":"Fujiyoshida"},{"lat":34.3253,"lng":134.1722,"iso3":"JPN","name":"Sanuki"},{"lat":31.6336,"lng":130.4022,"iso3":"JPN","name":"Hioki"},{"lat":33.5914,"lng":130.4797,"iso3":"JPN","name":"Shimeo"},{"lat":33.6389,"lng":130.8061,"iso3":"JPN","name":"Tamagawa"},{"lat":35.0278,"lng":138.9289,"iso3":"JPN","name":"Izunokuni"},{"lat":33.5756,"lng":133.6414,"iso3":"JPN","name":"Nakai"},{"lat":35.43,"lng":133.8256,"iso3":"JPN","name":"Kurayoshi"},{"lat":34.5072,"lng":133.5072,"iso3":"JPN","name":"Kasaoka"},{"lat":35.3528,"lng":136.0356,"iso3":"JPN","name":"Takashima"},{"lat":32.9794,"lng":130.8133,"iso3":"JPN","name":"Kikuchi"},{"lat":36.1586,"lng":140.5164,"iso3":"JPN","name":"Hokota"},{"lat":39.5547,"lng":141.1678,"iso3":"JPN","name":"Shima"},{"lat":35.7767,"lng":138.4236,"iso3":"JPN","name":"Hokuto"},{"lat":37.6511,"lng":139.8747,"iso3":"JPN","name":"Kitakata"},{"lat":36.0311,"lng":139.7264,"iso3":"JPN","name":"Sugito"},{"lat":26.1633,"lng":127.7706,"iso3":"JPN","name":"Nanjō"},{"lat":36.6667,"lng":137.3167,"iso3":"JPN","name":"Tateyama"},{"lat":38.1044,"lng":140.87,"iso3":"JPN","name":"Iwanuma"},{"lat":36.6439,"lng":139.0428,"iso3":"JPN","name":"Numata"},{"lat":35.1378,"lng":138.8972,"iso3":"JPN","name":"Nagaizumi"},{"lat":34.8514,"lng":136.915,"iso3":"JPN","name":"Taketoyo"},{"lat":32.8625,"lng":130.8286,"iso3":"JPN","name":"Kikuyō"},{"lat":34.675,"lng":131.8428,"iso3":"JPN","name":"Masuda"},{"lat":34.4078,"lng":131.3989,"iso3":"JPN","name":"Hagi"},{"lat":42.9917,"lng":143.2003,"iso3":"JPN","name":"Otofuke"},{"lat":34.2958,"lng":134.7792,"iso3":"JPN","name":"Goshikichō-aihara-minamidani"},{"lat":36.85,"lng":136.9833,"iso3":"JPN","name":"Himi"},{"lat":35.1167,"lng":136.7167,"iso3":"JPN","name":"Yatomi"},{"lat":31.5211,"lng":130.5176,"iso3":"JPN","name":"Taniyama-chūō"},{"lat":33.2506,"lng":130.2017,"iso3":"JPN","name":"Ogimachi"},{"lat":34.9,"lng":137.5,"iso3":"JPN","name":"Shinshiro"},{"lat":34.74,"lng":138.2247,"iso3":"JPN","name":"Makinohara"},{"lat":32.7756,"lng":130.3381,"iso3":"JPN","name":"Shimabara"},{"lat":34.8647,"lng":137.1656,"iso3":"JPN","name":"Kōta"},{"lat":31.9967,"lng":130.9728,"iso3":"JPN","name":"Kobayashi"},{"lat":35.1442,"lng":139.6206,"iso3":"JPN","name":"Miura"},{"lat":32.8253,"lng":129.875,"iso3":"JPN","name":"Obita"},{"lat":34.9278,"lng":134.8419,"iso3":"JPN","name":"Kasai"},{"lat":34.7553,"lng":134.0189,"iso3":"JPN","name":"Akaiwa"},{"lat":35.3042,"lng":139.8569,"iso3":"JPN","name":"Futtsu"},{"lat":35.0756,"lng":133.7525,"iso3":"JPN","name":"Maniwa"},{"lat":32.6597,"lng":130.2978,"iso3":"JPN","name":"Minamishimabara"},{"lat":36.1844,"lng":139.9675,"iso3":"JPN","name":"Shimotsuma"},{"lat":35.3206,"lng":139.1,"iso3":"JPN","name":"Nanbei"},{"lat":36.934,"lng":138.8174,"iso3":"JPN","name":"Yuzawa"},{"lat":33.7876,"lng":132.7112,"iso3":"JPN","name":"Masaki"},{"lat":36.8019,"lng":140.7511,"iso3":"JPN","name":"Kitaibaraki"},{"lat":36.3275,"lng":138.4258,"iso3":"JPN","name":"Komoro"},{"lat":32.8353,"lng":130.1875,"iso3":"JPN","name":"Unzen"},{"lat":28.3772,"lng":129.4939,"iso3":"JPN","name":"Amami"},{"lat":34.3422,"lng":134.8944,"iso3":"JPN","name":"Sumoto"},{"lat":34.4333,"lng":134.9167,"iso3":"JPN","name":"Awaji"},{"lat":36.8,"lng":137.4,"iso3":"JPN","name":"Uozu"},{"lat":34.9175,"lng":134.9736,"iso3":"JPN","name":"Katō"},{"lat":26.3961,"lng":127.7444,"iso3":"JPN","name":"Yomitan"},{"lat":35,"lng":136.5167,"iso3":"JPN","name":"Komono"},{"lat":37.8344,"lng":139.226,"iso3":"JPN","name":"Agano"},{"lat":35.5289,"lng":139.3217,"iso3":"JPN","name":"Aizawa"},{"lat":32.8803,"lng":130.8717,"iso3":"JPN","name":"Ōzu"},{"lat":37.0333,"lng":137.8667,"iso3":"JPN","name":"Itoigawa"},{"lat":36.1519,"lng":140.2372,"iso3":"JPN","name":"Kasumigaura"},{"lat":38.3811,"lng":140.2761,"iso3":"JPN","name":"Sagae"},{"lat":36.8667,"lng":137.45,"iso3":"JPN","name":"Kurobeshin"},{"lat":36.4167,"lng":139.8,"iso3":"JPN","name":"Mibu"},{"lat":43.5578,"lng":141.9106,"iso3":"JPN","name":"Takikawa"},{"lat":37.5333,"lng":138.9167,"iso3":"JPN","name":"Mitsuke"},{"lat":35.0758,"lng":135.2192,"iso3":"JPN","name":"Tamba-Sasayama"},{"lat":38.4264,"lng":141.2106,"iso3":"JPN","name":"Higashimatsushima"},{"lat":35.9567,"lng":140.3239,"iso3":"JPN","name":"Inashiki"},{"lat":34.0664,"lng":134.3586,"iso3":"JPN","name":"Yoshinogawa"},{"lat":33.5678,"lng":130.5111,"iso3":"JPN","name":"Umi"},{"lat":36.55,"lng":140.4167,"iso3":"JPN","name":"Hitachiomiya"},{"lat":39.4531,"lng":140.4754,"iso3":"JPN","name":"Ōmagari"},{"lat":36.3272,"lng":140.0906,"iso3":"JPN","name":"Sakuragawa"},{"lat":31.2528,"lng":130.6331,"iso3":"JPN","name":"Ibusuki"},{"lat":35.7486,"lng":136.9644,"iso3":"JPN","name":"Gujō"},{"lat":34.9933,"lng":134.9694,"iso3":"JPN","name":"Nishiwaki"},{"lat":40.6833,"lng":141.3689,"iso3":"JPN","name":"Misawa"},{"lat":34.5978,"lng":133.4639,"iso3":"JPN","name":"Ibara"},{"lat":34.4892,"lng":135.7267,"iso3":"JPN","name":"Katsuragi"},{"lat":35.3153,"lng":136.2839,"iso3":"JPN","name":"Maibara"},{"lat":36.3044,"lng":139.115,"iso3":"JPN","name":"Tamamura"},{"lat":34.7608,"lng":135.7858,"iso3":"JPN","name":"Seika"},{"lat":35.0894,"lng":138.9453,"iso3":"JPN","name":"Kannan"},{"lat":36.6686,"lng":136.7283,"iso3":"JPN","name":"Tsubata"},{"lat":34.5683,"lng":133.2364,"iso3":"JPN","name":"Fuchūchō"},{"lat":37.7967,"lng":140.9197,"iso3":"JPN","name":"Sōma"},{"lat":35.3619,"lng":137.2544,"iso3":"JPN","name":"Mizunami"},{"lat":34.0047,"lng":134.5906,"iso3":"JPN","name":"Komatsushimachō"},{"lat":33.7761,"lng":130.9806,"iso3":"JPN","name":"Kanada"},{"lat":35.4317,"lng":133.2508,"iso3":"JPN","name":"Yasugichō"},{"lat":32.6875,"lng":130.6583,"iso3":"JPN","name":"Uto"},{"lat":35.9417,"lng":139.3161,"iso3":"JPN","name":"Morohongō"},{"lat":38.3303,"lng":140.9756,"iso3":"JPN","name":"Rifu"},{"lat":33.1525,"lng":130.4747,"iso3":"JPN","name":"Miyajima"},{"lat":34.665,"lng":134.0928,"iso3":"JPN","name":"Setouchi"},{"lat":35.0961,"lng":139.0717,"iso3":"JPN","name":"Atami"},{"lat":33.1258,"lng":131.8047,"iso3":"JPN","name":"Usuki"},{"lat":35.2539,"lng":140.3853,"iso3":"JPN","name":"Isumi"},{"lat":35.0433,"lng":139.8403,"iso3":"JPN","name":"Minami-Bōsō"},{"lat":38.4264,"lng":140.3144,"iso3":"JPN","name":"Kahoku"},{"lat":33.5633,"lng":130.7117,"iso3":"JPN","name":"Kamata"},{"lat":35.2878,"lng":132.9006,"iso3":"JPN","name":"Unnan"},{"lat":37.4414,"lng":140.5692,"iso3":"JPN","name":"Tamura"},{"lat":33.7575,"lng":132.7039,"iso3":"JPN","name":"Iyo"},{"lat":33.3631,"lng":132.5111,"iso3":"JPN","name":"Seiyo"},{"lat":35.7078,"lng":140.5644,"iso3":"JPN","name":"Sōsa"},{"lat":33.7167,"lng":136,"iso3":"JPN","name":"Shingū"},{"lat":34.0789,"lng":134.2383,"iso3":"JPN","name":"Awa"},{"lat":44.0206,"lng":144.2736,"iso3":"JPN","name":"Abashiri"},{"lat":39.0822,"lng":141.7083,"iso3":"JPN","name":"Ofunato"},{"lat":32.6956,"lng":128.8408,"iso3":"JPN","name":"Gotō"},{"lat":35.1158,"lng":136.5614,"iso3":"JPN","name":"Inabe"},{"lat":38.765,"lng":140.3016,"iso3":"JPN","name":"Shinjō"},{"lat":33.791,"lng":132.8722,"iso3":"JPN","name":"Tōon"},{"lat":35.0058,"lng":134.5486,"iso3":"JPN","name":"Shisō"},{"lat":37.2333,"lng":138.9667,"iso3":"JPN","name":"Uonuma"},{"lat":37.3144,"lng":138.7951,"iso3":"JPN","name":"Ojiya"},{"lat":35.5397,"lng":133.2317,"iso3":"JPN","name":"Sakaiminato"},{"lat":33.2067,"lng":130.3839,"iso3":"JPN","name":"Ōsawa"},{"lat":34.5187,"lng":135.6476,"iso3":"JPN","name":"Taishi"},{"lat":34.8578,"lng":133.0167,"iso3":"JPN","name":"Shōbara"},{"lat":35.2719,"lng":139.5864,"iso3":"JPN","name":"Hayama"},{"lat":38.0378,"lng":140.8528,"iso3":"JPN","name":"Watari"},{"lat":31.3783,"lng":130.4417,"iso3":"JPN","name":"Minamikyūshū"},{"lat":34.5278,"lng":133.585,"iso3":"JPN","name":"Asakuchi"},{"lat":34.8839,"lng":135.6628,"iso3":"JPN","name":"Shimotoba"},{"lat":39.2758,"lng":141.8856,"iso3":"JPN","name":"Kamaishi"},{"lat":32.9781,"lng":131.585,"iso3":"JPN","name":"Bungoōno"},{"lat":32.7914,"lng":130.8164,"iso3":"JPN","name":"Mashiki"},{"lat":45.4,"lng":141.7,"iso3":"JPN","name":"Wakabadai"},{"lat":35.6922,"lng":138.6853,"iso3":"JPN","name":"Yamanashi"},{"lat":31.6536,"lng":131.0192,"iso3":"JPN","name":"Sō"},{"lat":35.3069,"lng":139.3114,"iso3":"JPN","name":"Ōiso"},{"lat":40.1903,"lng":141.7753,"iso3":"JPN","name":"Kuji"},{"lat":33.18,"lng":131.4267,"iso3":"JPN","name":"Yufu"},{"lat":35.2206,"lng":136.6367,"iso3":"JPN","name":"Kaizu"},{"lat":35.4831,"lng":136.6786,"iso3":"JPN","name":"Motosu"},{"lat":33.1483,"lng":130.1233,"iso3":"JPN","name":"Shiroishi"},{"lat":31.4167,"lng":130.3233,"iso3":"JPN","name":"Minamisatsuma"},{"lat":33.2083,"lng":133.1356,"iso3":"JPN","name":"Shimanto"},{"lat":36.1156,"lng":139.1942,"iso3":"JPN","name":"Yorii"},{"lat":34.5542,"lng":135.7931,"iso3":"JPN","name":"Tawaramoto"},{"lat":34.2283,"lng":133.7872,"iso3":"JPN","name":"Zentsujichó"},{"lat":36.7667,"lng":137.3333,"iso3":"JPN","name":"Namerikawa"},{"lat":35.0992,"lng":138.9028,"iso3":"JPN","name":"Shimizuchō"},{"lat":34.3711,"lng":131.1822,"iso3":"JPN","name":"Nagato"},{"lat":34.745,"lng":134.1881,"iso3":"JPN","name":"Bizen"},{"lat":35.1922,"lng":132.4997,"iso3":"JPN","name":"Ōdachō-ōda"},{"lat":26.1582,"lng":127.7186,"iso3":"JPN","name":"Yaese"},{"lat":35.5997,"lng":138.5172,"iso3":"JPN","name":"Chūō"},{"lat":35.9903,"lng":140.4892,"iso3":"JPN","name":"Namegata"},{"lat":35.7289,"lng":137.9339,"iso3":"JPN","name":"Komagane"},{"lat":33.6239,"lng":130.5264,"iso3":"JPN","name":"Sasaguri"},{"lat":39.8833,"lng":139.9889,"iso3":"JPN","name":"Katagami"},{"lat":40.6428,"lng":140.5944,"iso3":"JPN","name":"Kuroishi"},{"lat":35.1142,"lng":140.0989,"iso3":"JPN","name":"Maebara"},{"lat":35.2989,"lng":135.2586,"iso3":"JPN","name":"Ayabe"},{"lat":33.4631,"lng":132.4233,"iso3":"JPN","name":"Yawatahama-shi"},{"lat":33.8536,"lng":130.6114,"iso3":"JPN","name":"Okagaki"},{"lat":32.21,"lng":130.7625,"iso3":"JPN","name":"Hitoyoshi"},{"lat":36.4333,"lng":139.9167,"iso3":"JPN","name":"Kaminokawa"},{"lat":36.8067,"lng":139.9242,"iso3":"JPN","name":"Yaita"},{"lat":35.1072,"lng":135.47,"iso3":"JPN","name":"Nantan"},{"lat":34.6381,"lng":138.1281,"iso3":"JPN","name":"Omaezaki"},{"lat":36.2519,"lng":139.1447,"iso3":"JPN","name":"Kamisato"},{"lat":33.8183,"lng":135.2181,"iso3":"JPN","name":"Inami"},{"lat":33.3108,"lng":130.3731,"iso3":"JPN","name":"Kanzakimachi-kanzaki"},{"lat":33.9639,"lng":132.1017,"iso3":"JPN","name":"Yanai"},{"lat":35.8058,"lng":137.2442,"iso3":"JPN","name":"Yunoshima"},{"lat":37.5133,"lng":140.3939,"iso3":"JPN","name":"Motomiya"},{"lat":38.0553,"lng":140.1483,"iso3":"JPN","name":"Nanyō"},{"lat":40.5842,"lng":140.5664,"iso3":"JPN","name":"Hirakawachō"},{"lat":32.8289,"lng":129.8486,"iso3":"JPN","name":"Togitsu"},{"lat":35.5514,"lng":138.9056,"iso3":"JPN","name":"Tsuru"},{"lat":37.0333,"lng":138.25,"iso3":"JPN","name":"Myōkō"},{"lat":40.8089,"lng":140.38,"iso3":"JPN","name":"Tsuruno"},{"lat":35.9258,"lng":139.8153,"iso3":"JPN","name":"Matsubushi"},{"lat":33.5872,"lng":130.5072,"iso3":"JPN","name":"Sue"},{"lat":34.7708,"lng":138.2519,"iso3":"JPN","name":"Yoshida"},{"lat":33.4569,"lng":130.5953,"iso3":"JPN","name":"Chikuzen"},{"lat":34.895,"lng":135.3761,"iso3":"JPN","name":"Inagawa"},{"lat":40.2261,"lng":140.3708,"iso3":"JPN","name":"Kitaakita"},{"lat":36.6311,"lng":139.9867,"iso3":"JPN","name":"Takanezawa"},{"lat":36.3594,"lng":138.3306,"iso3":"JPN","name":"Tōmi"},{"lat":31.4772,"lng":131.0999,"iso3":"JPN","name":"Shibushi"},{"lat":34.9325,"lng":136.9156,"iso3":"JPN","name":"Agui"},{"lat":38.1497,"lng":140.2678,"iso3":"JPN","name":"Kaminoyama"},{"lat":34.6167,"lng":135.7333,"iso3":"JPN","name":"Ikaruga"},{"lat":35.7053,"lng":138.7294,"iso3":"JPN","name":"Kōshū"},{"lat":35.7089,"lng":138.4464,"iso3":"JPN","name":"Nirasaki"},{"lat":36.9572,"lng":140.4097,"iso3":"JPN","name":"Hanawa"},{"lat":33.3681,"lng":129.5539,"iso3":"JPN","name":"Hirado"},{"lat":34.791,"lng":133.6168,"iso3":"JPN","name":"Takahashi"},{"lat":36.0533,"lng":139.2661,"iso3":"JPN","name":"Ogawa"},{"lat":36.6833,"lng":136.8667,"iso3":"JPN","name":"Oyabe"},{"lat":32.1086,"lng":131.4014,"iso3":"JPN","name":"Saito"},{"lat":34.8036,"lng":134.4681,"iso3":"JPN","name":"Aioi"},{"lat":35.325,"lng":134.85,"iso3":"JPN","name":"Asago"},{"lat":34.9767,"lng":138.9469,"iso3":"JPN","name":"Izu"},{"lat":34.2439,"lng":134.3589,"iso3":"JPN","name":"Higashikagawa"},{"lat":38.4464,"lng":140.8864,"iso3":"JPN","name":"Taiwa"},{"lat":33.3708,"lng":131.5303,"iso3":"JPN","name":"Hiji"},{"lat":35.4956,"lng":135.7467,"iso3":"JPN","name":"Obama"},{"lat":34.0533,"lng":134.17,"iso3":"JPN","name":"Mima"},{"lat":38.0667,"lng":139.4167,"iso3":"JPN","name":"Tainai"},{"lat":33.0194,"lng":130.1792,"iso3":"JPN","name":"Tara"},{"lat":39.6058,"lng":141.1431,"iso3":"JPN","name":"Yahaba"},{"lat":37.9772,"lng":140.7819,"iso3":"JPN","name":"Kakuda"},{"lat":35.3929,"lng":132.8432,"iso3":"JPN","name":"Hikawa"},{"lat":34.5278,"lng":135.9525,"iso3":"JPN","name":"Ōuda-yamaguchi"},{"lat":36.6536,"lng":136.645,"iso3":"JPN","name":"Uchinada"},{"lat":33.42,"lng":131.6184,"iso3":"JPN","name":"Kitsuki"},{"lat":35.9472,"lng":140.5553,"iso3":"JPN","name":"Itako"},{"lat":33.3472,"lng":130.755,"iso3":"JPN","name":"Ukiha"},{"lat":34.352,"lng":135.6937,"iso3":"JPN","name":"Gojō"},{"lat":34.9772,"lng":133.4703,"iso3":"JPN","name":"Niimi"},{"lat":36.7136,"lng":140.7097,"iso3":"JPN","name":"Takahagi"},{"lat":36.2114,"lng":136.2289,"iso3":"JPN","name":"Awara"},{"lat":31.7147,"lng":130.2719,"iso3":"JPN","name":"Ichikikushikino"},{"lat":34.6664,"lng":132.7039,"iso3":"JPN","name":"Akitakata"},{"lat":44.3558,"lng":142.4633,"iso3":"JPN","name":"Nayoro"},{"lat":35.3667,"lng":136.5333,"iso3":"JPN","name":"Tarui"},{"lat":35.3083,"lng":136.5614,"iso3":"JPN","name":"Yōrō"},{"lat":33.7236,"lng":130.6667,"iso3":"JPN","name":"Miyanaga"},{"lat":34.2,"lng":132.2167,"iso3":"JPN","name":"Ōtake"},{"lat":35.0742,"lng":136.5836,"iso3":"JPN","name":"Tōin"},{"lat":42.9083,"lng":143.3561,"iso3":"JPN","name":"Makubetsu"},{"lat":36.2639,"lng":139.4675,"iso3":"JPN","name":"Ōra"},{"lat":34.0831,"lng":135.1278,"iso3":"JPN","name":"Arida"},{"lat":38.5719,"lng":140.855,"iso3":"JPN","name":"Kami"},{"lat":32.9331,"lng":129.6431,"iso3":"JPN","name":"Saikaichō-kobagō"},{"lat":35.3325,"lng":136.9078,"iso3":"JPN","name":"Ōguchi"},{"lat":38.1078,"lng":140.0406,"iso3":"JPN","name":"Nagai"},{"lat":33.4961,"lng":133.4253,"iso3":"JPN","name":"Tosa"},{"lat":33.2139,"lng":130.1161,"iso3":"JPN","name":"Ōmachi"},{"lat":33.325,"lng":130.4544,"iso3":"JPN","name":"Miyaki"},{"lat":33.5653,"lng":131.7317,"iso3":"JPN","name":"Kunisakimachi-tsurugawa"},{"lat":33.1278,"lng":130.06,"iso3":"JPN","name":"Ureshinomachi-shimojuku"},{"lat":36.2331,"lng":139.7408,"iso3":"JPN","name":"Nogi"},{"lat":34.0747,"lng":134.4406,"iso3":"JPN","name":"Ishii"},{"lat":31.7308,"lng":131.125,"iso3":"JPN","name":"Mimata"},{"lat":35.4972,"lng":138.755,"iso3":"JPN","name":"Fujikawaguchiko"},{"lat":35.0086,"lng":134.1486,"iso3":"JPN","name":"Mimasaka"},{"lat":37.6667,"lng":139.0333,"iso3":"JPN","name":"Kamo"},{"lat":34.0575,"lng":135.2161,"iso3":"JPN","name":"Aridagawa"},{"lat":39.3275,"lng":141.5336,"iso3":"JPN","name":"Tōno"},{"lat":35.915,"lng":137.9819,"iso3":"JPN","name":"Minowa"},{"lat":40.2711,"lng":141.3047,"iso3":"JPN","name":"Ninohe"},{"lat":33.7489,"lng":129.6939,"iso3":"JPN","name":"Iki"},{"lat":43.33,"lng":145.5831,"iso3":"JPN","name":"Nemuro"},{"lat":32.9373,"lng":131.0801,"iso3":"JPN","name":"Aso"},{"lat":39.8867,"lng":139.8478,"iso3":"JPN","name":"Oga"},{"lat":40.5992,"lng":141.3978,"iso3":"JPN","name":"Oirase"},{"lat":34.4633,"lng":135.7403,"iso3":"JPN","name":"Gose"},{"lat":36.6569,"lng":140.1517,"iso3":"JPN","name":"Nasukarasuyama"},{"lat":33.6117,"lng":131.1303,"iso3":"JPN","name":"Buzen"},{"lat":39.7,"lng":140.7306,"iso3":"JPN","name":"Senboku"},{"lat":38.05,"lng":140.7336,"iso3":"JPN","name":"Ōgawara"},{"lat":37.3067,"lng":137.15,"iso3":"JPN","name":"Noto"},{"lat":32.0572,"lng":130.6131,"iso3":"JPN","name":"Isa"},{"lat":32.5875,"lng":130.4306,"iso3":"JPN","name":"Kamiamakusa"},{"lat":35.1478,"lng":139.1083,"iso3":"JPN","name":"Yugawara"},{"lat":37.3906,"lng":136.8992,"iso3":"JPN","name":"Wajimazakimachi"},{"lat":36.9333,"lng":137.5,"iso3":"JPN","name":"Nyūzen"},{"lat":34.3417,"lng":132.9069,"iso3":"JPN","name":"Takehara"},{"lat":39.9264,"lng":141.0953,"iso3":"JPN","name":"Hachimantai"},{"lat":34.2725,"lng":133.7536,"iso3":"JPN","name":"Tadotsu"},{"lat":37.0197,"lng":140.1211,"iso3":"JPN","name":"Nasu"},{"lat":33.8833,"lng":136.1,"iso3":"JPN","name":"Kumano"},{"lat":26.2672,"lng":127.7911,"iso3":"JPN","name":"Nakagusuku"},{"lat":36.4475,"lng":139.0103,"iso3":"JPN","name":"Yoshioka"},{"lat":32.2167,"lng":130.4,"iso3":"JPN","name":"Minamata"},{"lat":34.1667,"lng":131.2058,"iso3":"JPN","name":"Mine"},{"lat":33.8914,"lng":135.1525,"iso3":"JPN","name":"Gobō"},{"lat":43.5553,"lng":144.9714,"iso3":"JPN","name":"Nakashunbetsu"},{"lat":39.2031,"lng":139.9078,"iso3":"JPN","name":"Nikaho"},{"lat":36.2114,"lng":139.5342,"iso3":"JPN","name":"Meiwa"},{"lat":35.4706,"lng":136.6275,"iso3":"JPN","name":"Ōno"},{"lat":34.2494,"lng":133.9231,"iso3":"JPN","name":"Ayagawa"},{"lat":34.7789,"lng":136.9083,"iso3":"JPN","name":"Mihama"},{"lat":35.0114,"lng":132.2211,"iso3":"JPN","name":"Gōtsuchō"},{"lat":35.6303,"lng":139.1086,"iso3":"JPN","name":"Uenohara"},{"lat":36.2383,"lng":137.1861,"iso3":"JPN","name":"Furukawa"},{"lat":35.6656,"lng":140.5042,"iso3":"JPN","name":"Yokoshibahikari"},{"lat":35.6106,"lng":138.94,"iso3":"JPN","name":"Ōtsuki"},{"lat":38.0028,"lng":140.1892,"iso3":"JPN","name":"Takahata"},{"lat":38.4833,"lng":140.3803,"iso3":"JPN","name":"Murayama"},{"lat":33.5757,"lng":131.5069,"iso3":"JPN","name":"Bungotakada"},{"lat":42.3414,"lng":142.3683,"iso3":"JPN","name":"Shinhidaka"},{"lat":33.6833,"lng":130.78,"iso3":"JPN","name":"Fukuyoshi"},{"lat":35.4047,"lng":134.7675,"iso3":"JPN","name":"Yabu"},{"lat":36.4675,"lng":140.0931,"iso3":"JPN","name":"Mashiko"},{"lat":34.2228,"lng":132.4442,"iso3":"JPN","name":"Etajima"},{"lat":35.1689,"lng":136.2125,"iso3":"JPN","name":"Aishō"},{"lat":33.3411,"lng":129.7092,"iso3":"JPN","name":"Matsuura"},{"lat":35.7167,"lng":140.2667,"iso3":"JPN","name":"Shisui"},{"lat":44.3564,"lng":143.3542,"iso3":"JPN","name":"Mobetsu"},{"lat":43.3419,"lng":142.3833,"iso3":"JPN","name":"Furano"},{"lat":34.3414,"lng":132.5139,"iso3":"JPN","name":"Saka"},{"lat":33.55,"lng":133.4333,"iso3":"JPN","name":"Ino"},{"lat":34.6794,"lng":138.9453,"iso3":"JPN","name":"Shimogamo"},{"lat":37.1419,"lng":140.1553,"iso3":"JPN","name":"Nishigō"},{"lat":34.6783,"lng":137.8167,"iso3":"JPN","name":"Ryūyō"},{"lat":43.3329,"lng":141.8538,"iso3":"JPN","name":"Bibai"},{"lat":33.4008,"lng":133.2831,"iso3":"JPN","name":"Susaki"},{"lat":36.0661,"lng":139.3608,"iso3":"JPN","name":"Namegawa"},{"lat":35.8408,"lng":140.2439,"iso3":"JPN","name":"Sakae"},{"lat":33.7492,"lng":132.7922,"iso3":"JPN","name":"Tobe"},{"lat":32.1283,"lng":131.5033,"iso3":"JPN","name":"Takanabe"},{"lat":43.9411,"lng":141.6369,"iso3":"JPN","name":"Rumoi"},{"lat":33.2414,"lng":130.5514,"iso3":"JPN","name":"Hirokawa"},{"lat":36.8936,"lng":136.7789,"iso3":"JPN","name":"Hakui"},{"lat":43.7233,"lng":142.0536,"iso3":"JPN","name":"Fukagawa"},{"lat":31.2728,"lng":130.2969,"iso3":"JPN","name":"Makurazaki"},{"lat":33.6781,"lng":135.3481,"iso3":"JPN","name":"Shirahama"},{"lat":38.8497,"lng":139.9047,"iso3":"JPN","name":"Shōnai"},{"lat":35.5653,"lng":135.1528,"iso3":"JPN","name":"Yosano"},{"lat":35.9814,"lng":139.4817,"iso3":"JPN","name":"Kitatajima"},{"lat":36.3486,"lng":138.5969,"iso3":"JPN","name":"Karuizawa"},{"lat":32.9736,"lng":131.3978,"iso3":"JPN","name":"Taketa"},{"lat":34.9503,"lng":134.7603,"iso3":"JPN","name":"Fukusaki"},{"lat":35.4869,"lng":136.5681,"iso3":"JPN","name":"Ibigawa"},{"lat":35.4167,"lng":136.6,"iso3":"JPN","name":"Gōdo"},{"lat":33.8481,"lng":130.6683,"iso3":"JPN","name":"Onga"},{"lat":35.5447,"lng":136.9075,"iso3":"JPN","name":"Mino"},{"lat":36.7,"lng":137.3667,"iso3":"JPN","name":"Kamiichi"},{"lat":36.8517,"lng":138.3656,"iso3":"JPN","name":"Iiyama"},{"lat":44.0617,"lng":143.5281,"iso3":"JPN","name":"Mukaiengaru"},{"lat":35.0503,"lng":134.9233,"iso3":"JPN","name":"Taka"},{"lat":32.9622,"lng":132.5833,"iso3":"JPN","name":"Ainan"},{"lat":34.3376,"lng":134.1397,"iso3":"JPN","name":"Mure"},{"lat":32.9389,"lng":132.7261,"iso3":"JPN","name":"Sukumo"},{"lat":33.2106,"lng":129.8492,"iso3":"JPN","name":"Arita"},{"lat":32.0144,"lng":130.1928,"iso3":"JPN","name":"Akune"},{"lat":37.4649,"lng":139.8342,"iso3":"JPN","name":"Aizumisato"},{"lat":38.3047,"lng":141.0594,"iso3":"JPN","name":"Shichigahama"},{"lat":36.0922,"lng":136.2986,"iso3":"JPN","name":"Eiheiji"},{"lat":36.0697,"lng":138.0803,"iso3":"JPN","name":"Shimomura"},{"lat":43.8236,"lng":144.1072,"iso3":"JPN","name":"Motomachi"},{"lat":34.6292,"lng":135.7006,"iso3":"JPN","name":"Heguri"},{"lat":33.6992,"lng":130.9206,"iso3":"JPN","name":"Miyatoko"},{"lat":35.9825,"lng":137.9875,"iso3":"JPN","name":"Tatsuno"},{"lat":36.04,"lng":139.4539,"iso3":"JPN","name":"Yoshimi"},{"lat":31.9906,"lng":131.3236,"iso3":"JPN","name":"Kunitomi"},{"lat":36.0567,"lng":139.3203,"iso3":"JPN","name":"Ranzan"},{"lat":34.9189,"lng":135.4942,"iso3":"JPN","name":"Toyono"},{"lat":26.3011,"lng":127.7931,"iso3":"JPN","name":"Kitanakagusuku"},{"lat":33.2886,"lng":130.1103,"iso3":"JPN","name":"Taku"},{"lat":43.1953,"lng":140.7836,"iso3":"JPN","name":"Yoichi"},{"lat":42.9119,"lng":143.0508,"iso3":"JPN","name":"Memuro-minami"},{"lat":37.0064,"lng":136.7781,"iso3":"JPN","name":"Shika"},{"lat":35.3364,"lng":139.1233,"iso3":"JPN","name":"Kishi"},{"lat":35.3267,"lng":139.1564,"iso3":"JPN","name":"Ōi"},{"lat":33.4269,"lng":130.5231,"iso3":"JPN","name":"Kiyama"},{"lat":39.0153,"lng":141.6294,"iso3":"JPN","name":"Rikuzen-Takata"},{"lat":44.1786,"lng":142.4006,"iso3":"JPN","name":"Minamishibetsuchō"},{"lat":36.4792,"lng":140.3764,"iso3":"JPN","name":"Shirosato"},{"lat":35.4344,"lng":137.1308,"iso3":"JPN","name":"Mitake"},{"lat":35.7422,"lng":139.2575,"iso3":"JPN","name":"Hinode"},{"lat":34.4813,"lng":136.8434,"iso3":"JPN","name":"Toba"},{"lat":32.0456,"lng":130.8111,"iso3":"JPN","name":"Ebino"},{"lat":32.9844,"lng":129.0733,"iso3":"JPN","name":"Shin-Kamigotō"},{"lat":37.4411,"lng":140.4928,"iso3":"JPN","name":"Miharu"},{"lat":32.4697,"lng":131.6489,"iso3":"JPN","name":"Kadogawa"},{"lat":34.1922,"lng":133.8414,"iso3":"JPN","name":"Mannō"},{"lat":36.6786,"lng":138.9991,"iso3":"JPN","name":"Minakami"},{"lat":34.7153,"lng":136.9297,"iso3":"JPN","name":"Minamichita"},{"lat":33.6561,"lng":131.0561,"iso3":"JPN","name":"Tsuiki"},{"lat":37.2011,"lng":140.3386,"iso3":"JPN","name":"Yabuki"},{"lat":34.0495,"lng":131.969,"iso3":"JPN","name":"Kumage"},{"lat":34.3906,"lng":135.79,"iso3":"JPN","name":"Ōyodo"},{"lat":35.1525,"lng":140.3211,"iso3":"JPN","name":"Katsuura"},{"lat":31.4645,"lng":131.2284,"iso3":"JPN","name":"Kushima"},{"lat":32.0689,"lng":131.4878,"iso3":"JPN","name":"Shintomi"},{"lat":43.4948,"lng":141.9035,"iso3":"JPN","name":"Sunagawa"},{"lat":33.3211,"lng":130.3989,"iso3":"JPN","name":"Yoshinogari"},{"lat":35.5356,"lng":135.1956,"iso3":"JPN","name":"Miyazu"},{"lat":32.7144,"lng":130.8019,"iso3":"JPN","name":"Mifune"},{"lat":36.9889,"lng":136.9017,"iso3":"JPN","name":"Nakanoto"},{"lat":35.3403,"lng":133.3267,"iso3":"JPN","name":"Nanbu"},{"lat":40.7281,"lng":141.2578,"iso3":"JPN","name":"Tōhoku"},{"lat":42.5511,"lng":141.3558,"iso3":"JPN","name":"Shiraoi"},{"lat":36.3133,"lng":140.575,"iso3":"JPN","name":"Ōarai"},{"lat":34.8814,"lng":135.7328,"iso3":"JPN","name":"Kumiyama"},{"lat":35.4953,"lng":133.6928,"iso3":"JPN","name":"Kotoura"},{"lat":35.49,"lng":133.8647,"iso3":"JPN","name":"Yurihama"},{"lat":34.0667,"lng":136.1833,"iso3":"JPN","name":"Owase"},{"lat":33.5025,"lng":133.9072,"iso3":"JPN","name":"Aki"},{"lat":35.8728,"lng":137.9753,"iso3":"JPN","name":"Minamiminowa"},{"lat":34.4917,"lng":135.6297,"iso3":"JPN","name":"Kanan"},{"lat":32.9297,"lng":130.4528,"iso3":"JPN","name":"Nagasu"},{"lat":33.3725,"lng":130.6225,"iso3":"JPN","name":"Tachiarai"},{"lat":33.0725,"lng":131.8611,"iso3":"JPN","name":"Tsukumiura"},{"lat":40.5311,"lng":141.3078,"iso3":"JPN","name":"Gonohe"},{"lat":36.3214,"lng":138.5089,"iso3":"JPN","name":"Miyota"},{"lat":34.1339,"lng":134.5803,"iso3":"JPN","name":"Matsushige"},{"lat":35.6322,"lng":134.6292,"iso3":"JPN","name":"Kasumi"},{"lat":35.4092,"lng":134.2508,"iso3":"JPN","name":"Yazu"},{"lat":42.2558,"lng":140.2653,"iso3":"JPN","name":"Yakumo"},{"lat":32.2989,"lng":130.4931,"iso3":"JPN","name":"Ashikita"},{"lat":34.2964,"lng":135.5042,"iso3":"JPN","name":"Kasagi"},{"lat":43.2169,"lng":141.5169,"iso3":"JPN","name":"Tōbetsu"},{"lat":35.8578,"lng":140.1394,"iso3":"JPN","name":"Tone"},{"lat":39.6942,"lng":140.9844,"iso3":"JPN","name":"Shizukuishi"},{"lat":35.0042,"lng":134.3558,"iso3":"JPN","name":"Sayō"},{"lat":36.7681,"lng":140.3553,"iso3":"JPN","name":"Daigo"},{"lat":34.4903,"lng":136.6308,"iso3":"JPN","name":"Tamaki"},{"lat":39.1956,"lng":141.1161,"iso3":"JPN","name":"Kanegasaki"},{"lat":38.5447,"lng":141.1347,"iso3":"JPN","name":"Wakuya"},{"lat":33.7919,"lng":130.6742,"iso3":"JPN","name":"Kurate"},{"lat":32.1919,"lng":131.5258,"iso3":"JPN","name":"Kawaminami"},{"lat":33.6961,"lng":135.4289,"iso3":"JPN","name":"Kamitonda"},{"lat":35.535,"lng":140.4406,"iso3":"JPN","name":"Kujūkuri"},{"lat":33.5331,"lng":132.6581,"iso3":"JPN","name":"Uchiko"},{"lat":36.5872,"lng":138.8408,"iso3":"JPN","name":"Nakanojōmachi"},{"lat":42.9017,"lng":140.7592,"iso3":"JPN","name":"Kutchan"},{"lat":35.3356,"lng":136.6656,"iso3":"JPN","name":"Anpachi"},{"lat":37.5614,"lng":139.8217,"iso3":"JPN","name":"Aizubange"},{"lat":36.5481,"lng":140.0581,"iso3":"JPN","name":"Haga"},{"lat":40.1017,"lng":140.005,"iso3":"JPN","name":"Mitane"},{"lat":34.5867,"lng":133.0567,"iso3":"JPN","name":"Sera"},{"lat":34.9978,"lng":133.9583,"iso3":"JPN","name":"Misaki"},{"lat":40.6561,"lng":140.5025,"iso3":"JPN","name":"Fujisaki"},{"lat":43.3942,"lng":145.1175,"iso3":"JPN","name":"Betsukai"},{"lat":40.4086,"lng":141.7181,"iso3":"JPN","name":"Hirono"},{"lat":33.9547,"lng":132.0414,"iso3":"JPN","name":"Tabuse"},{"lat":38.6008,"lng":140.4058,"iso3":"JPN","name":"Obanazawa"},{"lat":33.4858,"lng":135.7869,"iso3":"JPN","name":"Kushimoto"},{"lat":30.7325,"lng":130.9975,"iso3":"JPN","name":"Nishinoomote"},{"lat":33.9275,"lng":132.1953,"iso3":"JPN","name":"Suō-Ōshima"},{"lat":36.4403,"lng":138.9814,"iso3":"JPN","name":"Shintō"},{"lat":35.5653,"lng":138.5022,"iso3":"JPN","name":"Ichikawamisato"},{"lat":33.2106,"lng":130.4397,"iso3":"JPN","name":"Ōki"},{"lat":33.1381,"lng":129.8956,"iso3":"JPN","name":"Hasami"},{"lat":36.0044,"lng":140.3019,"iso3":"JPN","name":"Miho"},{"lat":32.2403,"lng":130.8981,"iso3":"JPN","name":"Asagiri"},{"lat":34.1092,"lng":136.2314,"iso3":"JPN","name":"Kihoku"},{"lat":39.4675,"lng":141.9489,"iso3":"JPN","name":"Yamada"},{"lat":36.2262,"lng":139.6022,"iso3":"JPN","name":"Itakura"},{"lat":33.2383,"lng":129.6506,"iso3":"JPN","name":"Furukawamen"},{"lat":33.2833,"lng":131.1514,"iso3":"JPN","name":"Tsukawaki"},{"lat":37.1442,"lng":140.4522,"iso3":"JPN","name":"Ishikawa"},{"lat":34.4961,"lng":136.5461,"iso3":"JPN","name":"Taki"},{"lat":38.0044,"lng":140.0458,"iso3":"JPN","name":"Kawaii"},{"lat":40.7447,"lng":141.1578,"iso3":"JPN","name":"Shichinohe"},{"lat":35.49,"lng":133.7586,"iso3":"JPN","name":"Hokuei"},{"lat":34.6006,"lng":133.8283,"iso3":"JPN","name":"Hayashima"},{"lat":36.4619,"lng":138.1803,"iso3":"JPN","name":"Sakaki"},{"lat":37.2003,"lng":139.7733,"iso3":"JPN","name":"Minamiaizu"},{"lat":37.9667,"lng":139.2667,"iso3":"JPN","name":"Seirō"},{"lat":26.3617,"lng":127.7553,"iso3":"JPN","name":"Kadena"},{"lat":39.5963,"lng":140.562,"iso3":"JPN","name":"Kakunodatemachi"},{"lat":31.3447,"lng":130.9453,"iso3":"JPN","name":"Kisanuki"},{"lat":35.4122,"lng":140.3542,"iso3":"JPN","name":"Chōsei"},{"lat":35.5611,"lng":138.4614,"iso3":"JPN","name":"Fujikawa"},{"lat":33.6261,"lng":135.9408,"iso3":"JPN","name":"Nachikatsuura"},{"lat":35.7356,"lng":140.4678,"iso3":"JPN","name":"Tako"},{"lat":35.5489,"lng":135.9083,"iso3":"JPN","name":"Wakasa"},{"lat":34.8736,"lng":134.3561,"iso3":"JPN","name":"Kamigōri"},{"lat":34.0367,"lng":133.9369,"iso3":"JPN","name":"Higashimiyoshi"},{"lat":35.9817,"lng":139.3342,"iso3":"JPN","name":"Hatoyama"},{"lat":38.2892,"lng":140.2625,"iso3":"JPN","name":"Yamanobe"},{"lat":34.4819,"lng":134.2336,"iso3":"JPN","name":"Shōdoshima"},{"lat":31.3783,"lng":130.4416,"iso3":"JPN","name":"Chiran"},{"lat":31.4928,"lng":130.7011,"iso3":"JPN","name":"Tarumizu"},{"lat":33.0728,"lng":129.8614,"iso3":"JPN","name":"Kawatana"},{"lat":36.2,"lng":133.3167,"iso3":"JPN","name":"Okinoshima"},{"lat":39.1994,"lng":140.4131,"iso3":"JPN","name":"Ugo"},{"lat":33.5789,"lng":130.6781,"iso3":"JPN","name":"Keisen"},{"lat":34.8028,"lng":134.1575,"iso3":"JPN","name":"Wake"},{"lat":34.1442,"lng":134.4625,"iso3":"JPN","name":"Itano"},{"lat":37.5578,"lng":140.1047,"iso3":"JPN","name":"Inawashiro"},{"lat":38.3736,"lng":141.061,"iso3":"JPN","name":"Matsushima"},{"lat":35.8372,"lng":140.6689,"iso3":"JPN","name":"Tōnoshō"},{"lat":34.6278,"lng":133.5872,"iso3":"JPN","name":"Yakage"},{"lat":35.0642,"lng":134.7394,"iso3":"JPN","name":"Kamikawa"},{"lat":37.0297,"lng":140.3797,"iso3":"JPN","name":"Tanagura"},{"lat":40.4525,"lng":141.6211,"iso3":"JPN","name":"Hashikami"},{"lat":26.6581,"lng":127.8981,"iso3":"JPN","name":"Motobu"},{"lat":35.6233,"lng":134.4492,"iso3":"JPN","name":"Shin'onsen"},{"lat":32.685,"lng":130.99,"iso3":"JPN","name":"Yamato"},{"lat":34.4861,"lng":134.1858,"iso3":"JPN","name":"Tonoshō"},{"lat":40.6961,"lng":140.4575,"iso3":"JPN","name":"Itayanagi"},{"lat":39.0158,"lng":139.9292,"iso3":"JPN","name":"Yuza"},{"lat":32.8272,"lng":131.1219,"iso3":"JPN","name":"Takamori"},{"lat":37.4364,"lng":137.2603,"iso3":"JPN","name":"Suzu"},{"lat":43.5183,"lng":142.1894,"iso3":"JPN","name":"Ashibetsu"},{"lat":36.2431,"lng":138.9219,"iso3":"JPN","name":"Kanra"},{"lat":35.1644,"lng":135.4233,"iso3":"JPN","name":"Kyōtamba"},{"lat":38.1831,"lng":140.0986,"iso3":"JPN","name":"Shirataka"},{"lat":37.2528,"lng":140.3436,"iso3":"JPN","name":"Kasaishi"},{"lat":37.665,"lng":140.5983,"iso3":"JPN","name":"Kawamata"},{"lat":35.5972,"lng":137.9097,"iso3":"JPN","name":"Matsukawa"},{"lat":40.8644,"lng":141.1286,"iso3":"JPN","name":"Nobeji"},{"lat":40.7589,"lng":140.4286,"iso3":"JPN","name":"Tsuruta"},{"lat":36.5715,"lng":138.8204,"iso3":"JPN","name":"Higashiagatsuma"},{"lat":37.9114,"lng":140.7656,"iso3":"JPN","name":"Marumori"},{"lat":33.5008,"lng":133.2867,"iso3":"JPN","name":"Sakawa"},{"lat":31.4292,"lng":131.0058,"iso3":"JPN","name":"Ōsako"},{"lat":33.9381,"lng":132.0733,"iso3":"JPN","name":"Hirao"},{"lat":36.8628,"lng":136.7978,"iso3":"JPN","name":"Hōdatsushimizu"},{"lat":42.9789,"lng":140.5092,"iso3":"JPN","name":"Iwanai"},{"lat":39.9725,"lng":141.2125,"iso3":"JPN","name":"Iwate"},{"lat":35.0608,"lng":136.1244,"iso3":"JPN","name":"Ryūō"},{"lat":42.1686,"lng":142.7683,"iso3":"JPN","name":"Urakawa"},{"lat":32.7814,"lng":132.955,"iso3":"JPN","name":"Tosashimizu"},{"lat":37.9625,"lng":140.8778,"iso3":"JPN","name":"Yamamoto"},{"lat":35.0919,"lng":133.9331,"iso3":"JPN","name":"Kagamino"},{"lat":34.5136,"lng":133.5569,"iso3":"JPN","name":"Satoshō"},{"lat":30.3711,"lng":130.665,"iso3":"JPN","name":"Yakushima"},{"lat":34.1214,"lng":134.405,"iso3":"JPN","name":"Kamiita"},{"lat":36.5322,"lng":140.1875,"iso3":"JPN","name":"Motegi"},{"lat":32.7117,"lng":131.3078,"iso3":"JPN","name":"Mitai"},{"lat":37.8494,"lng":140.5164,"iso3":"JPN","name":"Koori"},{"lat":33.7725,"lng":135.3217,"iso3":"JPN","name":"Minabe"},{"lat":35.1975,"lng":133.0025,"iso3":"JPN","name":"Okuizumo"},{"lat":33.29,"lng":134.1519,"iso3":"JPN","name":"Muroto-misakicho"},{"lat":34.0294,"lng":135.1903,"iso3":"JPN","name":"Yuasa"},{"lat":37.7,"lng":139.05,"iso3":"JPN","name":"Tagami"},{"lat":26.4561,"lng":127.9261,"iso3":"JPN","name":"Kin"},{"lat":34.7728,"lng":139.0414,"iso3":"JPN","name":"Higashiizu"},{"lat":43.0564,"lng":141.7842,"iso3":"JPN","name":"Kuriyama"},{"lat":38.0981,"lng":140.6589,"iso3":"JPN","name":"Zaō"},{"lat":36.5433,"lng":140.1022,"iso3":"JPN","name":"Ichikai"},{"lat":40.2131,"lng":141.2953,"iso3":"JPN","name":"Ichinohe"},{"lat":36.2178,"lng":139.4425,"iso3":"JPN","name":"Chiyoda"},{"lat":35.9644,"lng":139.2942,"iso3":"JPN","name":"Ogose"},{"lat":36.7447,"lng":138.4125,"iso3":"JPN","name":"Yamanouchi"},{"lat":32.5825,"lng":130.6736,"iso3":"JPN","name":"Hikawadai"},{"lat":35.0419,"lng":134.1161,"iso3":"JPN","name":"Shōō"},{"lat":36.1772,"lng":139.1814,"iso3":"JPN","name":"Miyato"},{"lat":26.4975,"lng":127.8536,"iso3":"JPN","name":"Onna"},{"lat":36.6978,"lng":138.3122,"iso3":"JPN","name":"Obuse"},{"lat":35.1894,"lng":139.0264,"iso3":"JPN","name":"Hakone"},{"lat":34.3519,"lng":136.7039,"iso3":"JPN","name":"Minamiise"},{"lat":35.3483,"lng":139.1394,"iso3":"JPN","name":"Matsuda-sōryō"},{"lat":38.6778,"lng":141.4464,"iso3":"JPN","name":"Minamisanriku"},{"lat":36.0172,"lng":139.0086,"iso3":"JPN","name":"Ogano"},{"lat":39.3597,"lng":141.9064,"iso3":"JPN","name":"Ōtsuchi"},{"lat":35.5758,"lng":134.3319,"iso3":"JPN","name":"Iwai"},{"lat":38.3333,"lng":140.2831,"iso3":"JPN","name":"Nakayama"},{"lat":36.0086,"lng":139.2969,"iso3":"JPN","name":"Tokigawa"},{"lat":35.4544,"lng":140.3744,"iso3":"JPN","name":"Shirako"},{"lat":38.1186,"lng":140.7225,"iso3":"JPN","name":"Murata"},{"lat":40.6097,"lng":141.3247,"iso3":"JPN","name":"Rokunohe"},{"lat":43.0103,"lng":141.6953,"iso3":"JPN","name":"Naganuma"},{"lat":35.3853,"lng":133.4075,"iso3":"JPN","name":"Hōki"},{"lat":43.4556,"lng":142.4672,"iso3":"JPN","name":"Kamifurano"},{"lat":33.7339,"lng":136.0097,"iso3":"JPN","name":"Kihō"},{"lat":34.8625,"lng":133.6939,"iso3":"JPN","name":"Kibichūō"},{"lat":35.4675,"lng":138.4425,"iso3":"JPN","name":"Minobu"},{"lat":35.8425,"lng":137.6917,"iso3":"JPN","name":"Kiso"},{"lat":32.8451,"lng":131.0178,"iso3":"JPN","name":"Minamiaso"},{"lat":43.6964,"lng":142.4517,"iso3":"JPN","name":"Higashikagura"},{"lat":27.7267,"lng":129.0186,"iso3":"JPN","name":"Tokunoshima"},{"lat":36.755,"lng":138.2356,"iso3":"JPN","name":"Iizuna"},{"lat":32.2011,"lng":130.8411,"iso3":"JPN","name":"Nishi"},{"lat":36.7775,"lng":139.8506,"iso3":"JPN","name":"Shioya"},{"lat":32.74,"lng":130.7572,"iso3":"JPN","name":"Kushijima"},{"lat":35.4761,"lng":137.1417,"iso3":"JPN","name":"Yaotsu"},{"lat":40.9675,"lng":141.3744,"iso3":"JPN","name":"Rokkasho"},{"lat":32.6514,"lng":130.8117,"iso3":"JPN","name":"Iwashita"},{"lat":33.025,"lng":133.0108,"iso3":"JPN","name":"Kuroshio"},{"lat":34.8939,"lng":132.4378,"iso3":"JPN","name":"Ōnan"},{"lat":36.1611,"lng":138.4833,"iso3":"JPN","name":"Sakuho"},{"lat":32.2567,"lng":131.5597,"iso3":"JPN","name":"Tsunō"},{"lat":35.4867,"lng":137.0706,"iso3":"JPN","name":"Kami-kawabe"},{"lat":40.9261,"lng":140.9561,"iso3":"JPN","name":"Hiranai"},{"lat":43.5883,"lng":142.4669,"iso3":"JPN","name":"Biei"},{"lat":35.3308,"lng":139.2189,"iso3":"JPN","name":"Nakao"},{"lat":43.5581,"lng":142.0442,"iso3":"JPN","name":"Akabira"},{"lat":34.5844,"lng":135.7742,"iso3":"JPN","name":"Kawanishichō"},{"lat":35.3606,"lng":139.0839,"iso3":"JPN","name":"Yamakita"},{"lat":26.6825,"lng":127.9728,"iso3":"JPN","name":"Nakoushi"},{"lat":36.0708,"lng":139.0989,"iso3":"JPN","name":"Minano"},{"lat":43.0111,"lng":142.8847,"iso3":"JPN","name":"Shimizu"},{"lat":33.6467,"lng":130.5,"iso3":"JPN","name":"Hirayama"},{"lat":38.8585,"lng":141.3493,"iso3":"JPN","name":"Fujisawachō-niinuma"},{"lat":32.9781,"lng":130.6058,"iso3":"JPN","name":"Nagaoki"},{"lat":35.6764,"lng":137.9194,"iso3":"JPN","name":"Iijima"},{"lat":32.2642,"lng":130.9358,"iso3":"JPN","name":"Taragi"},{"lat":33.5717,"lng":130.8542,"iso3":"JPN","name":"Soeda"},{"lat":35.285,"lng":140.2456,"iso3":"JPN","name":"Ōtaki"},{"lat":35.7689,"lng":137.9442,"iso3":"JPN","name":"Miyada"},{"lat":36.022,"lng":139.6543,"iso3":"JPN","name":"Nishiōwa"},{"lat":36.6982,"lng":137.8619,"iso3":"JPN","name":"Hakubachō"},{"lat":31.9283,"lng":131.0078,"iso3":"JPN","name":"Takaharu"},{"lat":39.8431,"lng":141.7967,"iso3":"JPN","name":"Iwaizumi"},{"lat":40.5183,"lng":140.5678,"iso3":"JPN","name":"Ōwani"},{"lat":33.4883,"lng":132.3542,"iso3":"JPN","name":"Ikata-chō"},{"lat":40.3267,"lng":141.4606,"iso3":"JPN","name":"Karumai"},{"lat":43.2458,"lng":141.8756,"iso3":"JPN","name":"Mikasa"},{"lat":37.6833,"lng":138.85,"iso3":"JPN","name":"Yahiko"},{"lat":34.7986,"lng":135.8033,"iso3":"JPN","name":"Ide"},{"lat":35.1583,"lng":139.1372,"iso3":"JPN","name":"Manazuru"},{"lat":40.6317,"lng":140.55,"iso3":"JPN","name":"Inakadate"},{"lat":42.7628,"lng":141.8181,"iso3":"JPN","name":"Abira"},{"lat":33.6925,"lng":130.7128,"iso3":"JPN","name":"Kotake"},{"lat":42.4169,"lng":139.8833,"iso3":"JPN","name":"Setana"},{"lat":30.5331,"lng":130.9586,"iso3":"JPN","name":"Nakata"},{"lat":42.9561,"lng":144.0717,"iso3":"JPN","name":"Shiranuka"},{"lat":35.3867,"lng":140.2372,"iso3":"JPN","name":"Chōnan"},{"lat":43.0569,"lng":141.9739,"iso3":"JPN","name":"Yūbari"},{"lat":43.3033,"lng":144.6008,"iso3":"JPN","name":"Shibecha"},{"lat":41.8694,"lng":140.1275,"iso3":"JPN","name":"Esashi"},{"lat":35.2219,"lng":136.2922,"iso3":"JPN","name":"Taga"},{"lat":38.9867,"lng":141.1142,"iso3":"JPN","name":"Hiraizumi"},{"lat":40.6481,"lng":139.9278,"iso3":"JPN","name":"Fukaura"},{"lat":36.1606,"lng":139.0619,"iso3":"JPN","name":"Onishi"},{"lat":35.2425,"lng":138.4861,"iso3":"JPN","name":"Nambu"},{"lat":35.6931,"lng":140.4142,"iso3":"JPN","name":"Shibayama"},{"lat":35.1917,"lng":140.3486,"iso3":"JPN","name":"Shinmachi"},{"lat":38.0614,"lng":139.7433,"iso3":"JPN","name":"Ogunimachi"},{"lat":43.4853,"lng":144.4592,"iso3":"JPN","name":"Teshikaga"},{"lat":31.9992,"lng":131.2531,"iso3":"JPN","name":"Aya"},{"lat":36.11,"lng":139.11,"iso3":"JPN","name":"Nagatoro"},{"lat":35.3653,"lng":136.4672,"iso3":"JPN","name":"Sekigahara"},{"lat":35.4308,"lng":140.2269,"iso3":"JPN","name":"Nagaya"},{"lat":43.1244,"lng":143.6106,"iso3":"JPN","name":"Kamihonbetsu"},{"lat":43.2447,"lng":143.5542,"iso3":"JPN","name":"Ashoro"},{"lat":38.5489,"lng":140.85,"iso3":"JPN","name":"Shikama"},{"lat":32.8347,"lng":130.9031,"iso3":"JPN","name":"Nishiharadai"},{"lat":42.2861,"lng":143.3117,"iso3":"JPN","name":"Hiroo"},{"lat":34.2022,"lng":132.2203,"iso3":"JPN","name":"Waki"},{"lat":38.5939,"lng":140.3728,"iso3":"JPN","name":"Ōishida"},{"lat":31.3858,"lng":130.9733,"iso3":"JPN","name":"Higashikyōshin"},{"lat":43.8281,"lng":142.5083,"iso3":"JPN","name":"Tōma"},{"lat":27.3922,"lng":128.6553,"iso3":"JPN","name":"Wadomari"},{"lat":36.2125,"lng":138.7892,"iso3":"JPN","name":"Shimonita"},{"lat":35.265,"lng":134.2267,"iso3":"JPN","name":"Chizu"},{"lat":37.1569,"lng":140.2953,"iso3":"JPN","name":"Izumizaki"},{"lat":37.0808,"lng":140.4128,"iso3":"JPN","name":"Asakawa"},{"lat":34.4,"lng":135.85,"iso3":"JPN","name":"Yoshinoyama"},{"lat":26.4817,"lng":127.9756,"iso3":"JPN","name":"Ginoza"},{"lat":43.1683,"lng":143.2411,"iso3":"JPN","name":"Shihoro"},{"lat":34.7531,"lng":138.7789,"iso3":"JPN","name":"Matsuzaki"},{"lat":35.9017,"lng":140.4053,"iso3":"JPN","name":"Kōzaki"},{"lat":43.0797,"lng":142.8389,"iso3":"JPN","name":"Shintoku"},{"lat":38.4675,"lng":140.8803,"iso3":"JPN","name":"Ōhira"},{"lat":28.4131,"lng":129.5894,"iso3":"JPN","name":"Tatsugō"},{"lat":27.3336,"lng":128.5736,"iso3":"JPN","name":"China"},{"lat":38.4456,"lng":141.4444,"iso3":"JPN","name":"Onagawa"},{"lat":43.0772,"lng":145.1294,"iso3":"JPN","name":"Hamanaka-sakuraminami"},{"lat":27.8092,"lng":128.8978,"iso3":"JPN","name":"Amagi"},{"lat":39.9494,"lng":140.0733,"iso3":"JPN","name":"Hachirougata"},{"lat":40.0397,"lng":141.4364,"iso3":"JPN","name":"Kuzumaki"},{"lat":34.4711,"lng":135.8206,"iso3":"JPN","name":"Asuka"},{"lat":42.4975,"lng":143.2789,"iso3":"JPN","name":"Taiki"},{"lat":42.3625,"lng":142.3186,"iso3":"JPN","name":"Takae"},{"lat":43.4253,"lng":141.8828,"iso3":"JPN","name":"Naie"},{"lat":35.4106,"lng":138.8608,"iso3":"JPN","name":"Yamanaka"},{"lat":33.5328,"lng":133.2519,"iso3":"JPN","name":"Ochi"},{"lat":43.6614,"lng":145.1314,"iso3":"JPN","name":"Shibetsu"},{"lat":42.5136,"lng":140.3804,"iso3":"JPN","name":"Oshamambe"},{"lat":38.8833,"lng":140.3394,"iso3":"JPN","name":"Kaneyama"},{"lat":36.5522,"lng":138.6375,"iso3":"JPN","name":"Naganohara"},{"lat":42.4294,"lng":140.0086,"iso3":"JPN","name":"Imagane"}],"Asia/Jakarta":[{"lat":-6.2146,"lng":106.8451,"iso3":"IDN","name":"Jakarta"},{"lat":-6.95,"lng":107.5667,"iso3":"IDN","name":"Bandung"},{"lat":-7.2458,"lng":112.7378,"iso3":"IDN","name":"Surabaya"},{"lat":-6.2333,"lng":107,"iso3":"IDN","name":"Bekasi"},{"lat":-6.394,"lng":106.8225,"iso3":"IDN","name":"Depok"},{"lat":-6.1783,"lng":106.6319,"iso3":"IDN","name":"Tangerang"},{"lat":3.6667,"lng":98.6667,"iso3":"IDN","name":"Medan"},{"lat":-6.9667,"lng":110.4167,"iso3":"IDN","name":"Semarang"},{"lat":-2.9833,"lng":104.7644,"iso3":"IDN","name":"Palembang"},{"lat":-7.7167,"lng":109.017,"iso3":"IDN","name":"Cilacap"},{"lat":-5.4294,"lng":105.2625,"iso3":"IDN","name":"Bandar Lampung"},{"lat":-6.5917,"lng":106.8,"iso3":"IDN","name":"Bogor"},{"lat":1.0678,"lng":104.0167,"iso3":"IDN","name":"Bagam"},{"lat":0.5333,"lng":101.45,"iso3":"IDN","name":"Pekanbaru"},{"lat":-0.9556,"lng":100.3606,"iso3":"IDN","name":"Padang"},{"lat":-7.98,"lng":112.62,"iso3":"IDN","name":"Malang"},{"lat":-7.3333,"lng":108.2,"iso3":"IDN","name":"Tasikmalaya"},{"lat":-6.12,"lng":106.1503,"iso3":"IDN","name":"Serang"},{"lat":-1.59,"lng":103.61,"iso3":"IDN","name":"Jambi"},{"lat":-6.8833,"lng":107.5333,"iso3":"IDN","name":"Cimahi"},{"lat":-7.5667,"lng":110.8167,"iso3":"IDN","name":"Surakarta"},{"lat":-7.8014,"lng":110.3644,"iso3":"IDN","name":"Yogyakarta"},{"lat":-6.0167,"lng":106.0167,"iso3":"IDN","name":"Cilegon"},{"lat":-3.7956,"lng":102.2592,"iso3":"IDN","name":"Bengkulu"},{"lat":-6.9197,"lng":106.9272,"iso3":"IDN","name":"Sukabumi"},{"lat":-6.7167,"lng":108.5667,"iso3":"IDN","name":"Cirebon"},{"lat":-6.8883,"lng":109.6753,"iso3":"IDN","name":"Pekalongan"},{"lat":-8.1727,"lng":113.6873,"iso3":"IDN","name":"Jember"},{"lat":-6.8667,"lng":109.1333,"iso3":"IDN","name":"Tegal"},{"lat":2.96,"lng":99.06,"iso3":"IDN","name":"Pematangsiantar"},{"lat":3.6,"lng":98.4853,"iso3":"IDN","name":"Binjai"},{"lat":1.6667,"lng":101.45,"iso3":"IDN","name":"Dumai"},{"lat":-7.8111,"lng":112.0047,"iso3":"IDN","name":"Kediri"},{"lat":5.55,"lng":95.3175,"iso3":"IDN","name":"Banda Aceh"},{"lat":-7.75,"lng":113.2167,"iso3":"IDN","name":"Probolinggo"},{"lat":1.3667,"lng":99.2667,"iso3":"IDN","name":"Padangsidempuan"},{"lat":-3.2967,"lng":102.8617,"iso3":"IDN","name":"Lubuklinggau"},{"lat":0.9188,"lng":104.4554,"iso3":"IDN","name":"Tanjungpinang"},{"lat":-7.63,"lng":111.5231,"iso3":"IDN","name":"Madiun"},{"lat":-7.6406,"lng":112.9065,"iso3":"IDN","name":"Pasuruan"},{"lat":-7.8672,"lng":112.5239,"iso3":"IDN","name":"Batu"},{"lat":-3.462,"lng":104.2229,"iso3":"IDN","name":"Prabumulih"},{"lat":-7.3667,"lng":108.5333,"iso3":"IDN","name":"Banjar"},{"lat":5.18,"lng":97.1506,"iso3":"IDN","name":"Lhokseumawe"},{"lat":-6.54,"lng":107.44,"iso3":"IDN","name":"Purwakarta"},{"lat":4.4667,"lng":97.95,"iso3":"IDN","name":"Langsa"},{"lat":-7.3389,"lng":110.5022,"iso3":"IDN","name":"Salatiga"},{"lat":3.3283,"lng":99.1625,"iso3":"IDN","name":"Tebingtinggi"},{"lat":-8.195,"lng":114.3696,"iso3":"IDN","name":"Banyuwangi"},{"lat":2.9667,"lng":99.8,"iso3":"IDN","name":"Tanjungbalai"},{"lat":-5.1167,"lng":105.3,"iso3":"IDN","name":"Metro"},{"lat":-7.4722,"lng":112.4336,"iso3":"IDN","name":"Mojokerto"},{"lat":1.1167,"lng":97.5667,"iso3":"IDN","name":"Gunungsitoli"},{"lat":-4.0217,"lng":103.2522,"iso3":"IDN","name":"Pageralam"},{"lat":-8.1,"lng":112.15,"iso3":"IDN","name":"Blitar"},{"lat":-0.2244,"lng":100.6325,"iso3":"IDN","name":"Payakumbuh"},{"lat":-2.1,"lng":106.1,"iso3":"IDN","name":"Pangkalpinang"},{"lat":-7.4706,"lng":110.2178,"iso3":"IDN","name":"Magelang"},{"lat":-6.3356,"lng":108.319,"iso3":"IDN","name":"Indramayu"},{"lat":-6.7415,"lng":111.0347,"iso3":"IDN","name":"Pati"},{"lat":-0.3097,"lng":100.3753,"iso3":"IDN","name":"Bukittinggi"},{"lat":-2.0636,"lng":101.3961,"iso3":"IDN","name":"Sungai Penuh"},{"lat":1.7425,"lng":98.7792,"iso3":"IDN","name":"Sibolga"},{"lat":-0.4644,"lng":100.4008,"iso3":"IDN","name":"Padangpanjang"},{"lat":-0.6261,"lng":100.1206,"iso3":"IDN","name":"Pariaman"},{"lat":-7.0049,"lng":113.8496,"iso3":"IDN","name":"Sumenep"},{"lat":2.6422,"lng":98.0042,"iso3":"IDN","name":"Subulussalam"},{"lat":-6.8995,"lng":112.05,"iso3":"IDN","name":"Tuban"},{"lat":-0.7883,"lng":100.6542,"iso3":"IDN","name":"Solok"},{"lat":-3.8,"lng":103.5333,"iso3":"IDN","name":"Lahat"},{"lat":4.1333,"lng":96.1167,"iso3":"IDN","name":"Meulaboh"},{"lat":-2.75,"lng":107.65,"iso3":"IDN","name":"Tanjungpandan"},{"lat":-0.6828,"lng":100.7783,"iso3":"IDN","name":"Sawahlunto"},{"lat":-4.8333,"lng":104.9,"iso3":"IDN","name":"Kotabumi"},{"lat":5.8931,"lng":95.32,"iso3":"IDN","name":"Sabang"},{"lat":0.53,"lng":101.435,"iso3":"IDN","name":"Padang Bulan"},{"lat":-6.8489,"lng":107.306,"iso3":"IDN","name":"Cipeutir"},{"lat":2.0167,"lng":98.9667,"iso3":"IDN","name":"Tarutung"},{"lat":4.217,"lng":108.2,"iso3":"IDN","name":"Buton"}],"America/Los_Angeles":[{"lat":37.4306,"lng":-120.7759,"iso3":"USA","name":"Delhi"},{"lat":46.7307,"lng":-116.9986,"iso3":"USA","name":"Moscow"},{"lat":34.1139,"lng":-118.4068,"iso3":"USA","name":"Los Angeles"},{"lat":47.6211,"lng":-122.3244,"iso3":"USA","name":"Seattle"},{"lat":45.6366,"lng":-122.5967,"iso3":"USA","name":"Vancouver"},{"lat":45.4233,"lng":-122.4437,"iso3":"USA","name":"Damascus"},{"lat":33.5767,"lng":-116.0645,"iso3":"USA","name":"Mecca"},{"lat":34.165,"lng":-117.9921,"iso3":"USA","name":"Monrovia"},{"lat":34.1224,"lng":-118.1132,"iso3":"USA","name":"San Marino"},{"lat":39.4313,"lng":-121.5225,"iso3":"USA","name":"Palermo"},{"lat":36.4432,"lng":-121.3426,"iso3":"USA","name":"Soledad"},{"lat":33.6095,"lng":-117.655,"iso3":"USA","name":"Mission Viejo"},{"lat":35.3529,"lng":-119.0359,"iso3":"USA","name":"Bakersfield"},{"lat":33.572,"lng":-117.1909,"iso3":"USA","name":"Murrieta"},{"lat":47.3915,"lng":-122.3157,"iso3":"USA","name":"Des Moines"},{"lat":39.5497,"lng":-119.8483,"iso3":"USA","name":"Reno"},{"lat":39.6232,"lng":-121.7875,"iso3":"USA","name":"Durham"},{"lat":33.7346,"lng":-116.2346,"iso3":"USA","name":"Indio"},{"lat":47.6671,"lng":-117.433,"iso3":"USA","name":"Spokane"},{"lat":37.9765,"lng":-121.3109,"iso3":"USA","name":"Stockton"},{"lat":34.1963,"lng":-119.1815,"iso3":"USA","name":"Oxnard"},{"lat":37.6374,"lng":-121.0028,"iso3":"USA","name":"Modesto"},{"lat":33.839,"lng":-117.8572,"iso3":"USA","name":"Anaheim"},{"lat":34.5277,"lng":-117.3536,"iso3":"USA","name":"Victorville"},{"lat":34.4175,"lng":-118.4964,"iso3":"USA","name":"Santa Clarita"},{"lat":32.6281,"lng":-117.0145,"iso3":"USA","name":"Chula Vista"},{"lat":44.0563,"lng":-123.1173,"iso3":"USA","name":"Eugene"},{"lat":36.288,"lng":-115.0901,"iso3":"USA","name":"North Las Vegas"},{"lat":46.1978,"lng":-119.1732,"iso3":"USA","name":"Kennewick"},{"lat":36.3276,"lng":-119.3269,"iso3":"USA","name":"Visalia"},{"lat":47.412,"lng":-121.996,"iso3":"USA","name":"Hobart"},{"lat":47.5436,"lng":-122.7122,"iso3":"USA","name":"Bremerton"},{"lat":47.2431,"lng":-122.4531,"iso3":"USA","name":"Tacoma"},{"lat":34.1914,"lng":-118.8755,"iso3":"USA","name":"Thousand Oaks"},{"lat":33.9244,"lng":-117.2045,"iso3":"USA","name":"Moreno Valley"},{"lat":47.0417,"lng":-122.8959,"iso3":"USA","name":"Olympia"},{"lat":33.696,"lng":-118.0025,"iso3":"USA","name":"Huntington Beach"},{"lat":36.1785,"lng":-115.049,"iso3":"USA","name":"Sunrise Manor"},{"lat":48.4676,"lng":-122.3298,"iso3":"USA","name":"Burlington"},{"lat":34.1248,"lng":-117.5666,"iso3":"USA","name":"Rancho Cucamonga"},{"lat":33.7341,"lng":-116.9969,"iso3":"USA","name":"Hemet"},{"lat":38.416,"lng":-121.3842,"iso3":"USA","name":"Elk Grove"},{"lat":38.1133,"lng":-122.2358,"iso3":"USA","name":"Vallejo"},{"lat":33.7787,"lng":-117.9601,"iso3":"USA","name":"Garden Grove"},{"lat":33.8616,"lng":-117.5649,"iso3":"USA","name":"Corona"},{"lat":37.6328,"lng":-122.0772,"iso3":"USA","name":"Hayward"},{"lat":47.1628,"lng":-122.5299,"iso3":"USA","name":"Lakewood"},{"lat":34.5944,"lng":-118.1057,"iso3":"USA","name":"Palmdale"},{"lat":47.1734,"lng":-122.412,"iso3":"USA","name":"Midland"},{"lat":33.1347,"lng":-117.0722,"iso3":"USA","name":"Escondido"},{"lat":37.3057,"lng":-120.4778,"iso3":"USA","name":"Merced"},{"lat":33.8346,"lng":-118.3417,"iso3":"USA","name":"Torrance"},{"lat":36.8035,"lng":-114.1325,"iso3":"USA","name":"Mesquite"},{"lat":34.0601,"lng":-117.4013,"iso3":"USA","name":"Bloomington"},{"lat":46.5923,"lng":-120.5496,"iso3":"USA","name":"Yakima"},{"lat":34.2663,"lng":-118.749,"iso3":"USA","name":"Simi Valley"},{"lat":34.0326,"lng":-118.1691,"iso3":"USA","name":"East Los Angeles"},{"lat":39.1357,"lng":-121.6381,"iso3":"USA","name":"Yuba City"},{"lat":37.0047,"lng":-121.5855,"iso3":"USA","name":"Gilroy"},{"lat":39.7575,"lng":-121.8152,"iso3":"USA","name":"Chico"},{"lat":47.7041,"lng":-116.7935,"iso3":"USA","name":"Coeur d'Alene"},{"lat":45.9889,"lng":-123.9214,"iso3":"USA","name":"Seaside"},{"lat":34.0739,"lng":-118.0291,"iso3":"USA","name":"El Monte"},{"lat":33.4928,"lng":-117.1315,"iso3":"USA","name":"Temecula"},{"lat":33.6667,"lng":-117.9135,"iso3":"USA","name":"Costa Mesa"},{"lat":32.7867,"lng":-115.5586,"iso3":"USA","name":"El Centro"},{"lat":33.9379,"lng":-118.1312,"iso3":"USA","name":"Downey"},{"lat":44.0562,"lng":-121.3087,"iso3":"USA","name":"Bend"},{"lat":34.001,"lng":-117.4705,"iso3":"USA","name":"Jurupa Valley"},{"lat":45.5023,"lng":-122.4413,"iso3":"USA","name":"Gresham"},{"lat":33.9566,"lng":-118.3444,"iso3":"USA","name":"Inglewood"},{"lat":37.5053,"lng":-120.8588,"iso3":"USA","name":"Turlock"},{"lat":37.6862,"lng":-122.4685,"iso3":"USA","name":"Daly City"},{"lat":34.0555,"lng":-117.9112,"iso3":"USA","name":"West Covina"},{"lat":39.5729,"lng":-119.7157,"iso3":"USA","name":"Sparks"},{"lat":34.1174,"lng":-117.3894,"iso3":"USA","name":"Rialto"},{"lat":37.7927,"lng":-121.2264,"iso3":"USA","name":"Manteca"},{"lat":38.6034,"lng":-121.381,"iso3":"USA","name":"Arden-Arcade"},{"lat":32.8017,"lng":-116.9605,"iso3":"USA","name":"El Cajon"},{"lat":47.4784,"lng":-122.1919,"iso3":"USA","name":"Renton"},{"lat":33.1896,"lng":-117.2386,"iso3":"USA","name":"Vista"},{"lat":38.359,"lng":-121.968,"iso3":"USA","name":"Vacaville"},{"lat":47.6626,"lng":-117.2346,"iso3":"USA","name":"Spokane Valley"},{"lat":46.1461,"lng":-122.9629,"iso3":"USA","name":"Longview"},{"lat":37.7269,"lng":-121.4522,"iso3":"USA","name":"Tracy"},{"lat":33.893,"lng":-118.2275,"iso3":"USA","name":"Compton"},{"lat":33.9448,"lng":-118.1926,"iso3":"USA","name":"South Gate"},{"lat":37.7071,"lng":-122.1601,"iso3":"USA","name":"San Leandro"},{"lat":38.6948,"lng":-121.288,"iso3":"USA","name":"Citrus Heights"},{"lat":33.9678,"lng":-118.0188,"iso3":"USA","name":"Whittier"},{"lat":37.4339,"lng":-121.8921,"iso3":"USA","name":"Milpitas"},{"lat":34.084,"lng":-118.1355,"iso3":"USA","name":"Alhambra"},{"lat":37.4,"lng":-122.0796,"iso3":"USA","name":"Mountain View"},{"lat":33.8572,"lng":-118.0046,"iso3":"USA","name":"Buena Park"},{"lat":33.7309,"lng":-117.8106,"iso3":"USA","name":"Tustin"},{"lat":36.9206,"lng":-121.7706,"iso3":"USA","name":"Watsonville"},{"lat":38.5552,"lng":-121.7365,"iso3":"USA","name":"Davis"},{"lat":33.888,"lng":-118.1271,"iso3":"USA","name":"Bellflower"},{"lat":34.0829,"lng":-117.9721,"iso3":"USA","name":"Baldwin Park"},{"lat":37.6536,"lng":-122.4197,"iso3":"USA","name":"South San Francisco"},{"lat":33.8574,"lng":-118.3766,"iso3":"USA","name":"Redondo Beach"},{"lat":33.9682,"lng":-118.2447,"iso3":"USA","name":"Florence-Graham"},{"lat":33.9902,"lng":-118.0888,"iso3":"USA","name":"Pico Rivera"},{"lat":34.0155,"lng":-118.1108,"iso3":"USA","name":"Montebello"},{"lat":32.6654,"lng":-117.0983,"iso3":"USA","name":"National City"},{"lat":33.9278,"lng":-117.9513,"iso3":"USA","name":"La Habra"},{"lat":33.9336,"lng":-118.0311,"iso3":"USA","name":"South Whittier"},{"lat":34.0497,"lng":-118.1326,"iso3":"USA","name":"Monterey Park"},{"lat":33.8944,"lng":-118.3073,"iso3":"USA","name":"Gardena"},{"lat":37.3168,"lng":-122.0465,"iso3":"USA","name":"Cupertino"},{"lat":32.7703,"lng":-117.0204,"iso3":"USA","name":"La Mesa"},{"lat":39.1512,"lng":-119.7474,"iso3":"USA","name":"Carson City"},{"lat":33.98,"lng":-118.2167,"iso3":"USA","name":"Huntington Park"},{"lat":33.7105,"lng":-117.9514,"iso3":"USA","name":"Fountain Valley"},{"lat":45.492,"lng":-122.8726,"iso3":"USA","name":"Aloha"},{"lat":34.0689,"lng":-118.0823,"iso3":"USA","name":"Rosemead"},{"lat":33.8976,"lng":-118.1652,"iso3":"USA","name":"Paramount"},{"lat":34.1849,"lng":-118.7669,"iso3":"USA","name":"Oak Park"},{"lat":33.8807,"lng":-117.8553,"iso3":"USA","name":"Placentia"},{"lat":33.5792,"lng":-117.7289,"iso3":"USA","name":"Aliso Viejo"},{"lat":37.9687,"lng":-121.3408,"iso3":"USA","name":"Country Club"},{"lat":33.8171,"lng":-118.0386,"iso3":"USA","name":"Cypress"},{"lat":36.8563,"lng":-121.3981,"iso3":"USA","name":"Hollister"},{"lat":38.7153,"lng":-121.361,"iso3":"USA","name":"Antelope"},{"lat":33.9025,"lng":-118.0093,"iso3":"USA","name":"La Mirada"},{"lat":38.6713,"lng":-121.3721,"iso3":"USA","name":"North Highlands"},{"lat":38.4832,"lng":-121.4042,"iso3":"USA","name":"Florin"},{"lat":34.0903,"lng":-117.8817,"iso3":"USA","name":"Covina"},{"lat":34.1928,"lng":-118.1345,"iso3":"USA","name":"Altadena"},{"lat":38.348,"lng":-122.6964,"iso3":"USA","name":"Rohnert Park"},{"lat":36.1005,"lng":-115.038,"iso3":"USA","name":"Whitney"},{"lat":37.6254,"lng":-122.4313,"iso3":"USA","name":"San Bruno"},{"lat":33.9663,"lng":-118.155,"iso3":"USA","name":"Bell Gardens"},{"lat":35.3831,"lng":-119.1184,"iso3":"USA","name":"Greenacres"},{"lat":45.0029,"lng":-123.0241,"iso3":"USA","name":"Keizer"},{"lat":34.0323,"lng":-117.9533,"iso3":"USA","name":"La Puente"},{"lat":34.0058,"lng":-118.3968,"iso3":"USA","name":"Culver City"},{"lat":32.711,"lng":-117.0027,"iso3":"USA","name":"La Presa"},{"lat":33.8002,"lng":-117.9935,"iso3":"USA","name":"Stanton"},{"lat":34.0882,"lng":-118.3718,"iso3":"USA","name":"West Hollywood"},{"lat":38.6867,"lng":-121.3475,"iso3":"USA","name":"Foothill Farms"},{"lat":34.1021,"lng":-118.0579,"iso3":"USA","name":"Temple City"},{"lat":33.9801,"lng":-118.1798,"iso3":"USA","name":"Bell"},{"lat":33.8895,"lng":-118.3972,"iso3":"USA","name":"Manhattan Beach"},{"lat":35.4249,"lng":-119.0279,"iso3":"USA","name":"Oildale"},{"lat":37.5553,"lng":-122.2659,"iso3":"USA","name":"Foster City"},{"lat":33.8884,"lng":-118.3531,"iso3":"USA","name":"Lawndale"},{"lat":37.586,"lng":-122.3669,"iso3":"USA","name":"Burlingame"},{"lat":34.3521,"lng":-119.0698,"iso3":"USA","name":"Santa Paula"},{"lat":45.6005,"lng":-122.4305,"iso3":"USA","name":"Camas"},{"lat":38.2473,"lng":-122.009,"iso3":"USA","name":"Suisun City"},{"lat":37.4671,"lng":-122.1352,"iso3":"USA","name":"East Palo Alto"},{"lat":34.4144,"lng":-119.8581,"iso3":"USA","name":"Isla Vista"},{"lat":32.5689,"lng":-117.1184,"iso3":"USA","name":"Imperial Beach"},{"lat":33.5491,"lng":-117.6416,"iso3":"USA","name":"Ladera Ranch"},{"lat":32.7331,"lng":-117.0344,"iso3":"USA","name":"Lemon Grove"},{"lat":33.9759,"lng":-118.0689,"iso3":"USA","name":"West Whittier-Los Nietos"},{"lat":37.9197,"lng":-122.3025,"iso3":"USA","name":"El Cerrito"},{"lat":33.8017,"lng":-116.5382,"iso3":"USA","name":"Palm Springs"},{"lat":37.7268,"lng":-120.9402,"iso3":"USA","name":"Riverbank"},{"lat":47.3716,"lng":-122.5689,"iso3":"USA","name":"Maplewood"},{"lat":47.836,"lng":-122.1877,"iso3":"USA","name":"Mill Creek East"},{"lat":34.0401,"lng":-117.93,"iso3":"USA","name":"Valinda"},{"lat":47.8533,"lng":-122.2762,"iso3":"USA","name":"North Lynnwood"},{"lat":38.5477,"lng":-121.3553,"iso3":"USA","name":"Rosemont"},{"lat":32.8376,"lng":-116.9268,"iso3":"USA","name":"Winter Gardens"},{"lat":34.0512,"lng":-117.9681,"iso3":"USA","name":"West Puente Valley"},{"lat":33.9057,"lng":-118.2682,"iso3":"USA","name":"West Rancho Dominguez"},{"lat":37.5994,"lng":-122.4023,"iso3":"USA","name":"Millbrae"},{"lat":47.8027,"lng":-122.1044,"iso3":"USA","name":"Maltby"},{"lat":33.8229,"lng":-118.2931,"iso3":"USA","name":"West Carson"},{"lat":44.9794,"lng":-122.9739,"iso3":"USA","name":"Hayesville"},{"lat":33.938,"lng":-118.3586,"iso3":"USA","name":"Lennox"},{"lat":47.7921,"lng":-122.3076,"iso3":"USA","name":"Mountlake Terrace"},{"lat":34.0493,"lng":-118.0484,"iso3":"USA","name":"South El Monte"},{"lat":33.7933,"lng":-118.3175,"iso3":"USA","name":"Lomita"},{"lat":34.0123,"lng":-117.9041,"iso3":"USA","name":"South San Jose Hills"},{"lat":34.2322,"lng":-118.2353,"iso3":"USA","name":"La Crescenta-Montrose"},{"lat":33.8654,"lng":-118.3966,"iso3":"USA","name":"Hermosa Beach"},{"lat":47.4949,"lng":-122.2411,"iso3":"USA","name":"Bryn Mawr-Skyway"},{"lat":36.9631,"lng":-120.0782,"iso3":"USA","name":"Madera"},{"lat":37.774,"lng":-121.5452,"iso3":"USA","name":"Mountain House"},{"lat":45.5355,"lng":-122.8006,"iso3":"USA","name":"Cedar Mill"},{"lat":32.8189,"lng":-116.9479,"iso3":"USA","name":"Bostonia"},{"lat":37.4252,"lng":-122.1674,"iso3":"USA","name":"Stanford"},{"lat":34.1198,"lng":-118.0807,"iso3":"USA","name":"East San Gabriel"},{"lat":34.0982,"lng":-117.9238,"iso3":"USA","name":"Vincent"},{"lat":37.6792,"lng":-122.1038,"iso3":"USA","name":"Cherryland"},{"lat":33.9683,"lng":-118.222,"iso3":"USA","name":"Walnut Park"},{"lat":47.5086,"lng":-122.348,"iso3":"USA","name":"White Center"},{"lat":38.4993,"lng":-121.452,"iso3":"USA","name":"Parkway"},{"lat":33.895,"lng":-118.1956,"iso3":"USA","name":"East Rancho Dominguez"},{"lat":36.6087,"lng":-119.5434,"iso3":"USA","name":"Parlier"},{"lat":34.0381,"lng":-118.0026,"iso3":"USA","name":"Avocado Heights"},{"lat":36.6192,"lng":-121.9255,"iso3":"USA","name":"Pacific Grove"},{"lat":47.7516,"lng":-122.2489,"iso3":"USA","name":"Kenmore"},{"lat":38.5172,"lng":-121.4573,"iso3":"USA","name":"Lemon Hill"},{"lat":37.4754,"lng":-122.2035,"iso3":"USA","name":"North Fair Oaks"},{"lat":33.8303,"lng":-118.0728,"iso3":"USA","name":"Hawaiian Gardens"},{"lat":35.1204,"lng":-120.6199,"iso3":"USA","name":"Grover Beach"},{"lat":46.4161,"lng":-117.0505,"iso3":"USA","name":"Clarkston"},{"lat":45.6577,"lng":-122.6204,"iso3":"USA","name":"Minnehaha"},{"lat":34.3912,"lng":-117.4125,"iso3":"USA","name":"Oak Hills"},{"lat":33.8784,"lng":-117.5116,"iso3":"USA","name":"Home Gardens"},{"lat":37.8382,"lng":-122.2932,"iso3":"USA","name":"Emeryville"},{"lat":33.9955,"lng":-118.3484,"iso3":"USA","name":"View Park-Windsor Hills"},{"lat":47.8064,"lng":-122.1845,"iso3":"USA","name":"Bothell East"},{"lat":37.3695,"lng":-121.8241,"iso3":"USA","name":"Alum Rock"},{"lat":33.8029,"lng":-118.1681,"iso3":"USA","name":"Signal Hill"},{"lat":33.7886,"lng":-118.0803,"iso3":"USA","name":"Rossmoor"},{"lat":36.6211,"lng":-119.3188,"iso3":"USA","name":"Orange Cove"},{"lat":38.5683,"lng":-121.3544,"iso3":"USA","name":"La Riviera"},{"lat":33.9244,"lng":-117.9887,"iso3":"USA","name":"East Whittier"},{"lat":47.8709,"lng":-122.2596,"iso3":"USA","name":"Lake Stickney"},{"lat":34.1161,"lng":-117.889,"iso3":"USA","name":"Citrus"},{"lat":34.1025,"lng":-117.8564,"iso3":"USA","name":"Charter Oak"},{"lat":36.9772,"lng":-121.9538,"iso3":"USA","name":"Capitola"},{"lat":33.9168,"lng":-118.3693,"iso3":"USA","name":"Del Aire"},{"lat":33.9765,"lng":-118.4486,"iso3":"USA","name":"Marina del Rey"},{"lat":33.9235,"lng":-118.3033,"iso3":"USA","name":"West Athens"},{"lat":38.6668,"lng":-121.1422,"iso3":"USA","name":"Folsom"},{"lat":37.9797,"lng":-121.2625,"iso3":"USA","name":"August"},{"lat":33.7451,"lng":-117.9849,"iso3":"USA","name":"Midway City"},{"lat":33.8885,"lng":-118.335,"iso3":"USA","name":"Alondra Park"},{"lat":34.0489,"lng":-118.0961,"iso3":"USA","name":"South San Gabriel"},{"lat":37.3913,"lng":-122.1468,"iso3":"USA","name":"Palo Alto"},{"lat":38.3126,"lng":-122.4888,"iso3":"USA","name":"Boyes Hot Springs"},{"lat":32.813,"lng":-115.378,"iso3":"USA","name":"Holtville"},{"lat":34.1234,"lng":-117.9958,"iso3":"USA","name":"South Monrovia Island"},{"lat":37.9261,"lng":-122.054,"iso3":"USA","name":"Contra Costa Centre"},{"lat":36.765,"lng":-121.7535,"iso3":"USA","name":"Castroville"},{"lat":38.6737,"lng":-120.9872,"iso3":"USA","name":"Cameron Park"},{"lat":37.8878,"lng":-122.076,"iso3":"USA","name":"Saranap"},{"lat":38.5326,"lng":-121.4558,"iso3":"USA","name":"Fruitridge Pocket"},{"lat":36.9618,"lng":-121.9715,"iso3":"USA","name":"Pleasure Point"},{"lat":34.116,"lng":-118.0096,"iso3":"USA","name":"Mayflower Village"},{"lat":36.5263,"lng":-119.2884,"iso3":"USA","name":"Cutler"},{"lat":37.6914,"lng":-122.4811,"iso3":"USA","name":"Broadmoor"},{"lat":37.6021,"lng":-121.0045,"iso3":"USA","name":"Bret Harte"},{"lat":37.9939,"lng":-122.3188,"iso3":"USA","name":"Tara Hills"},{"lat":45.4779,"lng":-122.8168,"iso3":"USA","name":"Beaverton"},{"lat":47.3091,"lng":-122.3358,"iso3":"USA","name":"Federal Way"},{"lat":34.3975,"lng":-117.3147,"iso3":"USA","name":"Hesperia"},{"lat":33.6909,"lng":-117.1849,"iso3":"USA","name":"Menifee"},{"lat":36.3274,"lng":-119.6549,"iso3":"USA","name":"Hanford"},{"lat":33.8374,"lng":-118.2559,"iso3":"USA","name":"Carson"},{"lat":37.6862,"lng":-121.7608,"iso3":"USA","name":"Livermore"},{"lat":40.4497,"lng":-122.295,"iso3":"USA","name":"Anderson"},{"lat":37.5026,"lng":-122.2252,"iso3":"USA","name":"Redwood City"},{"lat":38.2976,"lng":-122.3011,"iso3":"USA","name":"Napa"},{"lat":33.6151,"lng":-117.8669,"iso3":"USA","name":"Newport Beach"},{"lat":33.9508,"lng":-117.7253,"iso3":"USA","name":"Chino Hills"},{"lat":37.3277,"lng":-120.5321,"iso3":"USA","name":"Franklin"},{"lat":33.7899,"lng":-117.2233,"iso3":"USA","name":"Perris"},{"lat":34.1178,"lng":-117.6603,"iso3":"USA","name":"Upland"},{"lat":34.223,"lng":-119.0322,"iso3":"USA","name":"Camarillo"},{"lat":37.7625,"lng":-121.9365,"iso3":"USA","name":"San Ramon"},{"lat":46.2506,"lng":-119.1304,"iso3":"USA","name":"Pasco"},{"lat":38.574,"lng":-121.2523,"iso3":"USA","name":"Rancho Cordova"},{"lat":47.4356,"lng":-120.3283,"iso3":"USA","name":"Wenatchee"},{"lat":44.2631,"lng":-121.1798,"iso3":"USA","name":"Redmond"},{"lat":35.6394,"lng":-120.656,"iso3":"USA","name":"El Paso de Robles"},{"lat":37.9024,"lng":-122.0398,"iso3":"USA","name":"Walnut Creek"},{"lat":33.6847,"lng":-117.3344,"iso3":"USA","name":"Lake Elsinore"},{"lat":38.8075,"lng":-121.2488,"iso3":"USA","name":"Rocklin"},{"lat":33.889,"lng":-117.7714,"iso3":"USA","name":"Yorba Linda"},{"lat":44.5697,"lng":-123.278,"iso3":"USA","name":"Corvallis"},{"lat":38.2423,"lng":-122.6267,"iso3":"USA","name":"Petaluma"},{"lat":33.5275,"lng":-117.705,"iso3":"USA","name":"Laguna Niguel"},{"lat":47.6017,"lng":-122.0416,"iso3":"USA","name":"Sammamish"},{"lat":48.9839,"lng":-122.7414,"iso3":"USA","name":"Blaine"},{"lat":36.1996,"lng":-119.34,"iso3":"USA","name":"Tulare"},{"lat":38.6337,"lng":-121.323,"iso3":"USA","name":"Carmichael"},{"lat":33.9617,"lng":-117.5802,"iso3":"USA","name":"Eastvale"},{"lat":37.7091,"lng":-122.0631,"iso3":"USA","name":"Castro Valley"},{"lat":33.049,"lng":-117.2613,"iso3":"USA","name":"Encinitas"},{"lat":35.2669,"lng":-120.6691,"iso3":"USA","name":"San Luis Obispo"},{"lat":45.9145,"lng":-122.7506,"iso3":"USA","name":"Woodland"},{"lat":32.8554,"lng":-116.9851,"iso3":"USA","name":"Santee"},{"lat":46.067,"lng":-118.3366,"iso3":"USA","name":"Walla Walla"},{"lat":47.7564,"lng":-122.3426,"iso3":"USA","name":"Shoreline"},{"lat":42.4333,"lng":-123.3317,"iso3":"USA","name":"Grants Pass"},{"lat":33.9991,"lng":-117.8161,"iso3":"USA","name":"Diamond Bar"},{"lat":38.092,"lng":-122.5576,"iso3":"USA","name":"Novato"},{"lat":45.4237,"lng":-122.7845,"iso3":"USA","name":"Tigard"},{"lat":33.997,"lng":-117.9728,"iso3":"USA","name":"Hacienda Heights"},{"lat":33.8363,"lng":-116.4642,"iso3":"USA","name":"Cathedral City"},{"lat":34.0538,"lng":-117.3254,"iso3":"USA","name":"Colton"},{"lat":35.1241,"lng":-120.5845,"iso3":"USA","name":"Arroyo Grande"},{"lat":34.0336,"lng":-117.0429,"iso3":"USA","name":"Yucaipa"},{"lat":38.5557,"lng":-121.5504,"iso3":"USA","name":"West Sacramento"},{"lat":33.7378,"lng":-116.3695,"iso3":"USA","name":"Palm Desert"},{"lat":34.6618,"lng":-120.4714,"iso3":"USA","name":"Lompoc"},{"lat":34.1449,"lng":-117.8468,"iso3":"USA","name":"Glendora"},{"lat":47.4762,"lng":-122.3394,"iso3":"USA","name":"Burien"},{"lat":33.9716,"lng":-117.8911,"iso3":"USA","name":"Rowland Heights"},{"lat":34.1386,"lng":-117.9124,"iso3":"USA","name":"Azusa"},{"lat":39.4999,"lng":-121.5634,"iso3":"USA","name":"Oroville"},{"lat":32.9871,"lng":-117.0201,"iso3":"USA","name":"Poway"},{"lat":36.5987,"lng":-119.4473,"iso3":"USA","name":"Reedley"},